,parking,property_type,date_available,weekly_cost,address,suburb,postcode,beds,baths,latitude,longitude,SA2_CODE21,GCC_NAME21,dist_to_city
0,1,Unit,2024,430.0,2/9 jinghi road,reservoir,3073.0,1,1,-37.7065163,145.0134102,209021523,Greater Melbourne,14.380799999999999
1,1,Townhouse,2024,635.0,4/141 separation street,northcote,3070.0,2,2,-37.770055,145.005979,206021499,Greater Melbourne,7.7951999999999995
2,0,Unit,2024,740.0,3905/8 sutherland street,melbourne,3000.0,2,2,-37.8112837,144.9610594,206041504,Greater Melbourne,0.46805
3,0,Unit,2024,360.0,4/3 holmes street,brunswick east,3057.0,1,1,-37.7614109,144.9738506,206011106,Greater Melbourne,6.29896
4,2,Townhouse,2024,750.0,1/13 high street,doncaster,3108.0,3,2,-37.7870068,145.104966,207021157,Greater Melbourne,15.69024
5,0,House,2024,530.0,17 burnett street,mitcham,3132.0,3,1,-37.8120848,145.1959433,211041270,Greater Melbourne,24.93261
6,2,House,2024,700.0,87 strada crescent,wheelers hill,3150.0,4,2,-37.9115627,145.1686004,212051327,Greater Melbourne,24.480529999999998
7,1,Unit,2024,650.0,1308/16 pentridge boulevard,coburg,3058.0,2,2,-37.7384534,144.9694507,206011497,Greater Melbourne,9.5794
8,2,House,2024,1400.0,3 st vincent street,caulfield east,3145.0,4,2,-37.8864534,145.0450761,208021177,Greater Melbourne,14.73273
9,0,Unit,2024,600.0,1003/31 abeckett street,melbourne,3000.0,2,1,-37.8088893,144.9625546,206041504,Greater Melbourne,0.74906
10,2,House,2024,580.0,3 airfield grove,point cook,3030.0,4,2,-37.899278,144.7185233,213051466,Greater Melbourne,30.34693
11,2,Townhouse,2024,675.0,2/75 eva st,clayton,3168.0,2,1,-37.92617389999999,145.1127965,212051568,Greater Melbourne,24.744919999999997
12,1,Unit,2024,660.0,1209/77 queens road,melbourne,3004.0,2,2,-37.8528041,144.9794182,206051514,Greater Melbourne,5.29739
13,0,Unit,2024,620.0,1/106 toorak road,south yarra,3141.0,2,1,-37.8376173,144.982351,206041125,Greater Melbourne,3.753
14,1,House,2024,575.0,1/142 kent road,pascoe vale,3044.0,2,1,-37.7196003,144.9369412,210031538,Greater Melbourne,12.05936
15,2,Unit,2024,390.0,1/16 banksia crescent,hoppers crossing,3029.0,2,1,-37.8610294,144.6848746,213051361,Greater Melbourne,31.342209999999998
16,1,Unit,2024,480.0,2/20 vincent street,macleod,3085.0,3,1,-37.7186365,145.071361,209011203,Greater Melbourne,19.54539
17,2,House,2024,620.0,27 inverness street,reservoir,3073.0,3,2,-37.7032367,145.0287974,209021523,Greater Melbourne,15.74692
18,1,Unit,2024,550.0,302/15-21 harrow street,box hill,3128.0,2,2,-37.8213496,145.1249495,207031163,Greater Melbourne,20.57639
19,1,Unit,2024,530.0,104/533-535 mt alexander rd,moonee ponds,3039.0,2,1,-37.7701275,144.9257252,206031116,Greater Melbourne,7.52482
20,1,House,2024,1095.0,14 neville street,albert park,3206.0,3,2,-37.8474116,144.9560136,206051128,Greater Melbourne,5.00955
21,0,Unit,2024,480.0,3/164-168 arden street,north melbourne,3051.0,1,1,-37.800354,144.9462448,206041506,Greater Melbourne,2.94465
22,1,Unit,2024,420.0,3/680 waverley road,glen waverley,3150.0,2,1,-37.8885308,145.1594268,212051322,Greater Melbourne,23.044700000000002
23,2,Townhouse,2024,650.0,3/426 buckley st,essendon west,3040.0,3,2,-37.7530297,144.884826,210011230,Greater Melbourne,12.60149
24,2,Townhouse,2024,550.0,22 seeber street,epping,3076.0,3,2,-37.632032,145.0011384,209041433,Greater Melbourne,25.5218
25,0,Unit,2024,700.0,701/151 berkeley street,melbourne,3000.0,2,1,-37.8021006,144.9583883,206041117,Greater Melbourne,1.5503900000000002
26,2,House,2024,850.0,54 barossa avenue,vermont south,3133.0,5,3,-37.85623289999999,145.1974292,211041273,Greater Melbourne,33.061519999999994
27,2,House,2024,745.0,1/57 almond st,caulfield south,3162.0,3,2,-37.8897298,145.0275859,208021178,Greater Melbourne,13.30287
28,2,Unit,2024,1080.0,3/28 hawthorn glen,hawthorn,3122.0,3,2,-37.8322552,145.0319502,207011520,Greater Melbourne,8.366340000000001
29,6,House,2024,650.0,9 wintersun drive,albanvale,3021.0,3,2,-37.7469435,144.7684986,213011333,Greater Melbourne,27.82218
30,2,House,2024,600.0,7 smythe avenue,mernda,3754.0,4,2,-37.6046223,145.0605681,209041532,Greater Melbourne,32.18209
31,3,House,2024,650.0,24 fulton crescent,burwood,3125.0,3,1,-37.848226,145.1310193,207031165,Greater Melbourne,17.96003
32,1,Unit,2024,625.0,405/28 swindon road,hughesdale,3166.0,2,2,-37.8972109,145.086841,208021180,Greater Melbourne,17.51375
33,3,House,2024,525.0,78 edenvale boulevard,wollert,3750.0,3,2,-37.6175454,145.0153968,209041437,Greater Melbourne,27.59987
34,2,Townhouse,2024,870.0,4/969 mt alexander rd,essendon,3040.0,4,2,-37.7493,144.912511,206031502,Greater Melbourne,11.15831
35,0,Unit,2024,640.0,4604/301 king street,melbourne,3000.0,1,1,-37.8132921,144.954018,206041505,Greater Melbourne,1.2914700000000001
36,2,House,2024,695.0,309c stud road,dandenong north,3175.0,4,3,-37.9540419,145.2261129,212041312,Greater Melbourne,33.12416
37,0,Unit,2024,560.0,307/33 batman street,west melbourne,3003.0,2,1,-37.8108602,144.9518268,206041510,Greater Melbourne,1.61131
38,2,House,2024,850.0,12 carambola place,berwick,3806.0,5,3,-38.0765737,145.3572574,212021553,Greater Melbourne,51.521300000000004
39,1,Townhouse,2024,875.0,1/28-30 charles street,northcote,3070.0,2,1,-37.7769646,144.9915337,206021500,Greater Melbourne,5.75879
40,1,Unit,2024,700.0,902c/2 tannery walk,footscray,3011.0,3,2,-37.8002319,144.9071097,213031348,Greater Melbourne,6.739739999999999
41,2,House,2024,500.0,7 roseneath way,mickleham,3064.0,3,2,-37.52999519999999,144.9093125,210051445,Greater Melbourne,42.65014
42,1,Unit,2024,600.0,505/12-14 nelson road,box hill,3128.0,2,2,-37.8161925,145.1197517,207031163,Greater Melbourne,19.51853
43,0,Unit,2024,750.0,3909/462 elizabeth street,melbourne,3000.0,2,1,-37.807859,144.960611,206041504,Greater Melbourne,0.80186
44,0,Unit,2024,800.0,5 hartley,caulfield,3162.0,3,2,-37.8806606,145.0214734,208021178,Greater Melbourne,11.98667
45,1,House,2024,425.0,6 berkley place,melton west,3337.0,3,1,-37.6730929,144.5658323,213041358,Greater Melbourne,46.12592
46,1,Unit,2024,610.0,1811/50 albert road,south melbourne,3205.0,2,1,-37.8340507,144.9713202,206051512,Greater Melbourne,2.67977
47,0,House,2024,760.0,7 leinster grove,brunswick east,3057.0,4,1,-37.7712901,144.972432,206011106,Greater Melbourne,5.2489
48,1,Unit,2024,700.0,105/2 nelson st,balaclava,3183.0,2,2,-37.8658605,144.994003,206051134,Greater Melbourne,7.61471
49,0,Unit,2024,789.0,99 franklin street,melbourne,3000.0,1,1,-37.8081956,144.9612917,206041504,Greater Melbourne,0.85612
50,8,House,2024,650.0,77 rowes lane,wallan,3756.0,4,2,-37.4115026,144.9602909,209041224,Greater Melbourne,53.34538
51,0,House,2024,825.0,87 montague street,southbank,3006.0,3,2,-37.8299017,144.9496307,206051511,Greater Melbourne,2.96591
52,2,Townhouse,2024,800.0,1/15 raymond street,noble park,3174.0,4,3,-37.97050970000001,145.171736,212041460,Greater Melbourne,34.51746
53,2,House,2024,550.0,17 stradbroke close,berwick,3806.0,3,2,-38.011784,145.321922,212021293,Greater Melbourne,43.49929
54,1,Unit,2024,455.0,311/632 doncaster road,doncaster,3108.0,1,1,-37.7875232,145.1266175,207021157,Greater Melbourne,18.27584
55,1,Unit,2024,550.0,8/380 inkerman street,st kilda,3182.0,1,1,-37.8650001,144.9885663,206051513,Greater Melbourne,6.596229999999999
56,1,Unit,2024,530.0,3/24 cohuna street,brunswick west,3055.0,2,1,-37.7727271,144.9410949,206011107,Greater Melbourne,6.239229999999999
57,2,House,2024,1100.0,37 curlew point drive,patterson lakes,3197.0,4,3,-38.0772067,145.1415997,208031185,Greater Melbourne,48.0623
58,0,Unit,2024,1203.0,a113/348 macaulay road,kensington,3031.0,3,2,-37.7947678,144.9342535,206041121,Greater Melbourne,4.1856599999999995
59,0,House,2024,430.0,44 nightingale drive,werribee,3030.0,3,1,-37.8860799,144.6747529,213051467,Greater Melbourne,30.96146
60,1,Townhouse,2024,450.0,158 farm road,werribee,3030.0,2,1,-37.9196617,144.6469653,213051468,Greater Melbourne,37.96646
61,2,Townhouse,2024,1190.0,20a & 20b henley street,pascoe vale south,3044.0,4,3,-37.749945,144.9315685,206011109,Greater Melbourne,8.366299999999999
62,2,House,2024,630.0,7 dablam street,clyde north,3978.0,4,2,-38.1024816,145.3579939,212031556,Greater Melbourne,56.73212
63,1,Unit,2024,820.0,4805/560 lonsdale street,melbourne,3000.0,2,2,-37.8139691,144.9556528,206041505,Greater Melbourne,0.8678899999999999
64,1,Unit,2024,530.0,7/4 yorston court,elsternwick,3185.0,2,1,-37.8846597,145.0086263,208021179,Greater Melbourne,9.807739999999999
65,2,House,2024,580.0,13 golf links drive,mill park,3082.0,3,1,-37.6617302,145.049495,209041220,Greater Melbourne,21.05753
66,0,Unit,2024,490.0,10/29 mitford street,st kilda,3182.0,2,1,-37.8726068,144.9818687,206051513,Greater Melbourne,8.24626
67,0,House,2024,650.0,39 sandells road,tecoma,3160.0,3,1,-37.9002756,145.3459308,211051284,Greater Melbourne,47.01199
68,0,Studio,2024,320.0,127 leicester street,carlton,3053.0,1,1,-37.80288,144.9602773,206041117,Greater Melbourne,1.5540399999999999
69,1,Unit,2024,600.0,125/33-47 la trobe street,melbourne,3000.0,2,1,-37.8079019,144.9703422,206041503,Greater Melbourne,1.3019
70,1,House,2024,710.0,61 clarendon street,thornbury,3071.0,2,1,-37.7597409,145.0044527,206021112,Greater Melbourne,8.56622
71,1,Unit,2024,380.0,18/24 brixton rise,glen iris,3146.0,1,1,-37.8588298,145.0596395,208041194,Greater Melbourne,12.17934
72,2,Unit,2024,780.0,8/6 sidwell ave,st kilda east,3183.0,2,1,-37.8691498,145.0058189,208021177,Greater Melbourne,9.386709999999999
73,2,House,2024,550.0,27 romulea circuit,diggers rest,3427.0,4,2,-37.6223899,144.694738,210041539,Greater Melbourne,37.064569999999996
74,1,Townhouse,2024,470.0,10a hanworth avenue,williams landing,3027.0,2,1,-37.8607697,144.7451987,213051363,Greater Melbourne,24.09493
75,1,Unit,2024,650.0,409/2-6 railway road,cheltenham,3192.0,3,2,-37.9661517,145.0563838,208031188,Greater Melbourne,25.683880000000002
76,2,House,2024,800.0,6 bonnie court,ferntree gully,3156.0,5,2,-37.8912561,145.2824528,211011448,Greater Melbourne,41.05819
77,1,Unit,2024,770.0,g08/1555 malvern road,glen iris,3146.0,2,1,-37.8536224,145.0477641,208041194,Greater Melbourne,11.45055
78,1,House,2024,550.0,24 wallaroo avenue,narre warren,3805.0,3,1,-38.0134281,145.3001116,212021456,Greater Melbourne,41.01251
79,2,House,2024,550.0,3 maddock street,point cook,3030.0,4,2,-37.9003244,144.7202891,213051466,Greater Melbourne,30.64786
80,0,Unit,2024,520.0,557 little lonsdale street,melbourne,3000.0,1,1,-37.813306,144.9553567,206041505,Greater Melbourne,0.97573
81,0,House,2024,350.0,rear 14 sunshine grove,rye,3941.0,1,1,-38.3818759,144.8313689,214021383,Greater Melbourne,55.34099
82,2,House,2024,1100.0,8 beltane avenue,brighton east,3187.0,6,4,-37.9030138,145.02426,208011170,Greater Melbourne,14.75453
83,2,House,2024,580.0,23 pechora street,truganina,3029.0,4,2,-37.7670429,144.6884403,213041359,Greater Melbourne,34.77279
84,2,Townhouse,2024,700.0,23 morawa drive,mulgrave,3170.0,4,2,-37.928482,145.196241,212051325,Greater Melbourne,28.52151
85,2,House,2024,650.0,54 marchant avenue,reservoir,3073.0,3,1,-37.7137866,145.0150852,209021523,Greater Melbourne,13.76032
86,0,Unit,2024,680.0,1506/63 la trobe street,melbourne,3000.0,1,1,-37.8081542,144.9695394,206041503,Greater Melbourne,1.223
87,1,House,2024,530.0,78 bowes avenue,airport west,3042.0,3,1,-37.72780729999999,144.8856627,210011226,Greater Melbourne,15.13766
88,1,Unit,2024,595.0,5/21 wilson street,south yarra,3141.0,1,1,-37.8437612,144.9964955,206061516,Greater Melbourne,5.609439999999999
89,1,House,2024,490.0,37/191-193 lygon street,brunswick east,3057.0,1,1,-37.7718894,144.971423,206011496,Greater Melbourne,5.09141
90,2,House,2024,565.0,25 bakanovi drive,truganina,3029.0,4,2,-37.76119509999999,144.674333,213041359,Greater Melbourne,36.73432
91,1,Townhouse,2024,485.0,13/213-215 camp road,broadmeadows,3047.0,2,1,-37.6884314,144.9383992,210051242,Greater Melbourne,16.964669999999998
92,1,House,2024,500.0,1/65 ferguson street,macleod,3085.0,2,1,-37.7273217,145.0742756,209011203,Greater Melbourne,18.02183
93,1,Unit,2024,650.0,g09/13 koonawarra street,clayton,3168.0,2,1,-37.9078447,145.1249291,212051567,Greater Melbourne,21.48122
94,2,House,2024,850.0,21 clinton street,brighton east,3187.0,4,2,-37.9121035,145.0202983,208011170,Greater Melbourne,15.58155
95,2,Townhouse,2024,820.0,31 emu road,maidstone,3012.0,4,3,-37.7800214,144.8813216,213031347,Greater Melbourne,10.55317
96,0,House,2024,750.0,12 empress road,st kilda east,3183.0,2,1,-37.8687222,145.0015679,208021177,Greater Melbourne,9.25619
97,0,Unit,2024,290.0,8 porter street,prahran,3181.0,0,1,-37.8508636,144.9899698,206061136,Greater Melbourne,5.63286
98,2,House,2024,510.0,30 judith street,dandenong north,3175.0,3,1,-37.9671531,145.2206194,212041312,Greater Melbourne,32.12578
99,1,Unit,2024,925.0,4207/22-24 jane bell lane,melbourne,3000.0,2,1,-37.8102191,144.966267,206041504,Greater Melbourne,0.8880399999999999
100,1,Unit,2024,775.0,306/132 smith street,collingwood,3066.0,2,2,-37.804475,144.983604,206071141,Greater Melbourne,2.71848
101,0,Unit,2024,530.0,1704/7 katherine place,melbourne,3000.0,1,1,-37.8201715,144.9564604,206041505,Greater Melbourne,1.3044200000000001
102,1,Unit,2024,675.0,1/950 burke road,deepdene,3103.0,3,1,-37.8106331,145.0610736,207011147,Greater Melbourne,9.4821
103,2,House,2024,600.0,10 furlong court,endeavour hills,3802.0,4,2,-37.96843130000001,145.2731205,212021453,Greater Melbourne,36.71067
104,3,Townhouse,2024,1295.0,9b fuge street,highett,3190.0,4,3,-37.9461234,145.0289738,208011171,Greater Melbourne,20.353150000000003
105,1,House,2024,520.0,39b greenleaf circuit,tarneit,3029.0,3,2,-37.8576231,144.6621833,213051585,Greater Melbourne,33.187839999999994
106,1,House,2024,1195.0,1a lucas street,brighton east,3187.0,3,2,-37.9222334,145.0061177,208011170,Greater Melbourne,13.286620000000001
107,3,House,2024,625.0,10 hester street,blairgowrie,3942.0,4,2,-38.3584565,144.7613578,214021383,Greater Melbourne,49.01579
108,1,Unit,2024,850.0,301/220 commercial road,prahran,3181.0,2,1,-37.84723899999999,144.99358,206061136,Greater Melbourne,5.99976
109,2,Unit,2024,625.0,3/3-25 hanover street,fitzroy,3065.0,2,1,-37.8026342,144.9750293,206071142,Greater Melbourne,2.05231
110,1,Townhouse,2024,530.0,6/20 hancock crescent,braybrook,3019.0,2,2,-37.7822239,144.8586913,213031347,Greater Melbourne,12.163450000000001
111,1,Unit,2024,650.0,7/88 southbank boulevard,southbank,3006.0,2,1,-37.8234641,144.9646631,206041509,Greater Melbourne,1.9639000000000002
112,1,Unit,2024,615.0,715v/162 albert street,east melbourne,3002.0,2,1,-37.8100432,144.9855313,206041119,Greater Melbourne,2.6919299999999997
113,1,Unit,2024,680.0,2.02/776 riversdale road,camberwell,3124.0,2,2,-37.834019,145.0784129,207011149,Greater Melbourne,14.04433
114,1,Unit,2024,600.0,6213/172 edward street street,brunswick east,3057.0,2,1,-37.775312,144.9718123,206011106,Greater Melbourne,4.79388
115,1,Unit,2024,500.0,304/40 burgundy street,heidelberg,3084.0,2,1,-37.7563909,145.0690427,209011198,Greater Melbourne,14.5214
116,1,Unit,2024,575.0,307/1b nelson street,ringwood,3134.0,2,2,-37.8119331,145.2263716,211031266,Greater Melbourne,27.56107
117,0,Unit,2024,540.0,1408/2 newquay promenade,docklands,3008.0,1,1,-37.8141226,144.9438269,206041118,Greater Melbourne,2.24359
118,1,Unit,2024,525.0,908/280 spencer street,melbourne,3000.0,1,1,-37.8139473,144.9520227,206041505,Greater Melbourne,1.30677
119,2,House,2024,740.0,1030 nepean highway,mornington,3931.0,4,2,-38.2250967,145.0516577,214021591,Greater Melbourne,71.09545
120,2,Unit,2024,950.0,70/183 city road,southbank,3006.0,3,2,-37.8247935,144.9618171,206041509,Greater Melbourne,1.94647
121,2,House,2024,490.0,3 dover hedge walk,wollert,3750.0,3,2,-37.6144518,145.0418939,209041437,Greater Melbourne,27.1249
122,0,Studio,2024,460.0,917/6 leicester street,carlton,3053.0,1,1,-37.806138,144.9602874,206041117,Greater Melbourne,1.22901
123,0,Unit,2024,800.0,7/38 mitford street,elwood,3184.0,3,1,-37.8745229,144.9835571,206051129,Greater Melbourne,8.514790000000001
124,2,Unit,2024,875.0,3/5 vautier street,elwood,3184.0,4,2,-37.885826,144.9870232,206051129,Greater Melbourne,10.22611
125,1,Unit,2024,500.0,202/2 cromwell road,south yarra,3141.0,1,1,-37.84708639999999,144.9997062,206061516,Greater Melbourne,6.30112
126,2,House,2024,1400.0,50 hopetoun avenue,canterbury,3126.0,5,3,-37.8186648,145.0775678,207011155,Greater Melbourne,10.81959
127,2,House,2024,535.0,44 stambridge st,tarneit,3029.0,4,2,-37.8208719,144.6769797,213051584,Greater Melbourne,33.12646
128,2,Townhouse,2024,680.0,2 oxford street,west footscray,3012.0,3,2,-37.7923592,144.8773982,213031351,Greater Melbourne,9.957559999999999
129,1,House,2024,470.0,2/3 charlesworth street,laverton,3028.0,3,1,-37.8600332,144.7757541,213051363,Greater Melbourne,21.4772
130,1,Unit,2024,500.0,11/210 corrigan road,noble park,3174.0,2,1,-37.9725899,145.1658389,212041460,Greater Melbourne,34.99405
131,3,Townhouse,2024,550.0,2/20 navarre court,meadow heights,3048.0,2,2,-37.6571941,144.9229936,210051247,Greater Melbourne,19.47849
132,1,House,2024,680.0,120 power avenue,chadstone,3148.0,3,1,-37.8776457,145.1033155,212051319,Greater Melbourne,18.28418
133,1,House,2024,840.0,1 & 2/32 folkstone crescent,ferntree gully,3156.0,4,3,-37.88899019999999,145.2590059,211011448,Greater Melbourne,38.35197
134,2,House,2024,500.0,34 silvereye circuit,beveridge,3753.0,4,2,-37.4714142,144.9638294,209041224,Greater Melbourne,45.70447
135,1,Townhouse,2024,1100.0,7/398 elgar road,box hill,3128.0,4,4,-37.821922,145.1142951,207031163,Greater Melbourne,19.74589
136,0,Unit,2024,700.0,12/63 alexandra avenue,south yarra,3141.0,1,1,-37.8322438,144.9892193,206061515,Greater Melbourne,4.25021
137,3,House,2024,580.0,46 linden street,altona meadows,3028.0,4,2,-37.8669271,144.776697,213021342,Greater Melbourne,22.52019
138,1,Unit,2024,380.0,3/81 delaware street,reservoir,3073.0,1,1,-37.720262,145.008883,209021525,Greater Melbourne,12.58606
139,2,House,2024,1500.0,588 inkerman street,caulfield north,3161.0,4,2,-37.8674836,145.0084958,206051134,Greater Melbourne,9.38491
140,0,Townhouse,2024,1400.0,55 lewisham road,windsor,3181.0,4,3,-37.854248,144.9992446,206061136,Greater Melbourne,6.63835
141,1,Unit,2024,710.0,2005/58 clarke street,southbank,3006.0,2,1,-37.8278616,144.9593727,206041509,Greater Melbourne,2.52203
142,1,Unit,2024,520.0,3/13 gardeners road,bentleigh east,3165.0,2,1,-37.918975,145.061988,208021426,Greater Melbourne,20.32368
143,1,Unit,2024,460.0,410/243 queens parade,fitzroy north,3068.0,1,1,-37.78631900000001,144.9945971,206071143,Greater Melbourne,5.19505
144,1,Unit,2024,525.0,1/9 hewitt avenue,footscray,3011.0,2,1,-37.7996605,144.8806059,213031348,Greater Melbourne,9.29923
145,2,House,2024,550.0,15 bellvue drive,truganina,3029.0,3,2,-37.840979,144.7096648,213051588,Greater Melbourne,25.306189999999997
146,1,House,2024,390.0,9 cornelius close,melton south,3338.0,2,2,-37.6989138,144.5699813,213041578,Greater Melbourne,45.58782
147,2,Townhouse,2024,990.0,5/147 woodhouse grove,box hill north,3129.0,4,2,-37.8019225,145.131936,207031164,Greater Melbourne,20.46371
148,1,Unit,2024,430.0,12/59 raleigh st,windsor,3181.0,1,1,-37.8523467,144.9874184,206061136,Greater Melbourne,5.54879
149,2,House,2024,460.0,16 healey street,craigieburn,3064.0,3,1,-37.6000303,144.938805,210051443,Greater Melbourne,26.38399
150,1,Unit,2024,580.0,2209/22 dorcas street,southbank,3006.0,1,1,-37.8301483,144.9696742,206041509,Greater Melbourne,2.28895
151,1,Unit,2024,545.0,306/36 porter street,prahran,3181.0,1,1,-37.8492653,144.990339,206061136,Greater Melbourne,5.334689999999999
152,2,House,2024,550.0,24 hamish drive,tarneit,3029.0,4,2,-37.8445107,144.6601458,213051583,Greater Melbourne,30.34676
153,0,Unit,2024,550.0,1001/23 mackenzie street,melbourne,3000.0,1,1,-37.8075687,144.9674021,206041503,Greater Melbourne,1.2013399999999999
154,4,House,2024,620.0,203 oriel road,heidelberg west,3081.0,4,1,-37.7433988,145.0422264,209011199,Greater Melbourne,13.73531
155,0,Unit,2024,600.0,803/263 franklin street,melbourne,3000.0,2,1,-37.8096191,144.9560827,206041504,Greater Melbourne,1.2315699999999998
156,4,House,2024,950.0,10 gray street,mount martha,3934.0,4,3,-38.2867395,145.0039362,214021382,Greater Melbourne,80.74316
157,1,Unit,2024,480.0,41a lavender park road,eltham,3095.0,2,1,-37.7318298,145.1465941,209031209,Greater Melbourne,23.64833
158,1,Unit,2024,530.0,2/46 bowes avenue,airport west,3042.0,2,2,-37.73078539999999,144.8852539,210011226,Greater Melbourne,14.82701
159,1,Unit,2024,600.0,26/73 river street,richmond,3121.0,2,2,-37.8189479,145.013148,206071518,Greater Melbourne,4.97588
160,0,Unit,2024,630.0,2906/318 russell street,melbourne,3000.0,1,1,-37.8091772,144.9667584,206041503,Greater Melbourne,1.00745
161,1,Unit,2024,1100.0,3001/60 kavanagh street,southbank,3006.0,3,2,-37.8242191,144.9635646,206041509,Greater Melbourne,1.8568399999999998
162,1,Unit,2024,460.0,4/69 lincoln road,essendon,3040.0,2,1,-37.7504298,144.9087879,206031501,Greater Melbourne,10.92573
163,1,Unit,2024,360.0,9/10 burnewang street,albion,3020.0,1,1,-37.78348130000001,144.8205964,213011328,Greater Melbourne,14.857370000000001
164,1,Unit,2024,675.0,807/7 aspen street,moonee ponds,3039.0,2,2,-37.7655561,144.9217946,206031116,Greater Melbourne,8.263879999999999
165,1,House,2024,430.0,14 harshaw road,thornhill park,3335.0,3,1,-37.7237127,144.620112,213041359,Greater Melbourne,45.49029
166,2,Townhouse,2024,680.0,51 hillsdale avenue,maribyrnong,3032.0,3,2,-37.7856987,144.8960637,213031349,Greater Melbourne,9.74944
167,1,Unit,2024,580.0,504/7 balcombe road,mentone,3194.0,2,2,-37.98212050000001,145.0705603,208031190,Greater Melbourne,27.733900000000002
168,2,House,2024,450.0,39 shillings road,mambourin,3024.0,3,2,-37.8885751,144.602393,213051468,Greater Melbourne,47.28286
169,2,House,2024,520.0,144 kirkpatrick boulevard,truganina,3029.0,3,2,-37.762859,144.6870557,213041359,Greater Melbourne,34.493660000000006
170,0,Unit,2024,550.0,7/24 fitzgerald street,south yarra,3141.0,1,1,-37.8425542,144.9929738,206061516,Greater Melbourne,5.25602
171,2,Townhouse,2024,1450.0,23b emma,caulfield south,3162.0,4,3,-37.8923344,145.0360231,208021178,Greater Melbourne,14.56732
172,0,Unit,2024,400.0,004b/12 albert street,hawthorn east,3123.0,1,1,-37.8236023,145.0480671,207011152,Greater Melbourne,10.19111
173,0,House,2024,750.0,77 lambeth street,kensington,3031.0,3,1,-37.791483,144.934243,206041121,Greater Melbourne,4.629359999999999
174,0,Unit,2024,520.0,406/6 leicester street,carlton,3053.0,1,1,-37.806138,144.9602874,206041117,Greater Melbourne,1.22901
175,1,House,2024,700.0,15 first avenue,murrumbeena,3163.0,2,1,-37.8987006,145.0663756,208021181,Greater Melbourne,16.34652
176,1,Unit,2024,650.0,2502/828 whitehorse road,box hill,3128.0,2,2,-37.817361,145.1173653,207031163,Greater Melbourne,19.40868
177,1,House,2024,480.0,2a richards street,coburg,3058.0,2,1,-37.7424702,144.9714894,206011497,Greater Melbourne,8.91127
178,1,Unit,2024,600.0,4/210 albion street,brunswick,3056.0,2,1,-37.7607613,144.9615677,206011495,Greater Melbourne,6.20949
179,1,Unit,2024,790.0,2407n/889 collins street,docklands,3008.0,2,1,-37.82091399999999,144.9418601,206041118,Greater Melbourne,2.6067
180,2,House,2024,650.0,3 ovens place,clyde north,3978.0,4,2,-38.1108098,145.3287992,212031556,Greater Melbourne,53.02022
181,11,House,2024,1220.0,82 creedmore drive,rye,3941.0,4,2,-38.38362800000001,144.8212013,214021383,Greater Melbourne,55.66375
182,2,Townhouse,2024,780.0,6/9 mccoll court,brunswick west,3055.0,3,2,-37.7552071,144.9366208,206011107,Greater Melbourne,8.20005
183,2,Unit,2024,950.0,205/495 glenhuntly road,elsternwick,3185.0,2,2,-37.8851117,145.0089448,208021179,Greater Melbourne,9.76222
184,3,House,2024,725.0,3/26 wyalong street,albion,3020.0,4,3,-37.7773765,144.8167403,213011328,Greater Melbourne,15.726270000000001
185,1,Unit,2024,550.0,5/47 evansdale road,hawthorn,3122.0,2,1,-37.8237188,145.0232949,207011520,Greater Melbourne,7.5891
186,2,House,2024,460.0,16 thornbill drive,werribee,3030.0,3,1,-37.8895339,144.6695402,213051467,Greater Melbourne,31.27802
187,1,Unit,2024,490.0,504a/2a duffy street,essendon north,3041.0,1,1,-37.7401486,144.9000425,206031501,Greater Melbourne,12.03338
188,1,Unit,2024,495.0,5/176 liardet street,port melbourne,3207.0,1,1,-37.8373807,144.940679,206051130,Greater Melbourne,4.57188
189,2,House,2024,650.0,35 chisholm crescent,narre warren south,3805.0,3,2,-38.0584843,145.2834018,212031458,Greater Melbourne,46.21445
190,0,House,2024,560.0,5 bent street,kensington,3031.0,2,1,-37.7963923,144.9349855,206041121,Greater Melbourne,4.26088
191,1,Unit,2024,440.0,747/18 albert street,footscray,3011.0,1,1,-37.8016476,144.8977057,213031348,Greater Melbourne,6.81286
192,5,House,2024,830.0,2314 epping-kilmore road,upper plenty,3756.0,4,2,-37.4136987,145.0217126,209041224,Greater Melbourne,55.971309999999995
193,2,Townhouse,2024,650.0,5/18-20 ibbottson street,watsonia,3087.0,3,2,-37.70987239999999,145.0844928,209011204,Greater Melbourne,20.4697
194,1,Unit,2024,920.0,9/30 willansby avenue,brighton,3186.0,3,2,-37.90732420000001,145.0037361,208011169,Greater Melbourne,11.68619
195,1,Unit,2024,850.0,501/815 bourke street,docklands,3008.0,2,2,-37.8199317,144.9444519,206041118,Greater Melbourne,2.30808
196,1,Unit,2024,430.0,5/118 holden street,fitzroy north,3068.0,1,1,-37.7798164,144.9836354,206071143,Greater Melbourne,5.09908
197,1,Unit,2024,400.0,2/63 may street,altona north,3025.0,2,1,-37.8335908,144.8517879,213021343,Greater Melbourne,13.10979
198,0,Unit,2024,380.0,5 dudley street,caulfield east,3145.0,1,1,-37.880464,145.0480025,208021177,Greater Melbourne,13.93784
199,1,Unit,2024,580.0,11/1-6 chaprowe court,cheltenham,3192.0,2,1,-37.9608147,145.0585816,208031188,Greater Melbourne,24.81561
200,1,Unit,2024,570.0,206/38 inkerman street,st kilda,3182.0,2,1,-37.8641295,144.9832661,206051513,Greater Melbourne,7.389609999999999
201,2,Studio,2024,390.0,7/259 domain road,south yarra,3141.0,0,1,-37.83496179999999,144.9877217,206061515,Greater Melbourne,3.76867
202,2,House,2024,530.0,14 lucania crescent,tarneit,3029.0,4,2,-37.8097485,144.7018371,213051584,Greater Melbourne,28.69471
203,2,House,2024,460.0,95 duff street,cranbourne,3977.0,3,1,-38.10136869999999,145.270105,212031300,Greater Melbourne,52.48104
204,1,House,2024,480.0,45 south circular road,gladstone park,3043.0,3,1,-37.6897929,144.886897,210051245,Greater Melbourne,18.84726
205,3,House,2024,1000.0,1 hartnett court,moonee ponds,3039.0,3,2,-37.7595141,144.9293819,206031116,Greater Melbourne,8.78382
206,2,House,2024,650.0,4 brolo street,wollert,3750.0,4,2,-37.5995479,145.0039456,209041437,Greater Melbourne,33.094800000000006
207,2,House,2024,785.0,2 judd parade,cheltenham,3192.0,3,2,-37.9746222,145.0741244,208031188,Greater Melbourne,27.64939
208,2,House,2024,600.0,136 evesham drive,point cook,3030.0,4,2,-37.9010205,144.7553859,213051464,Greater Melbourne,27.37555
209,1,Townhouse,2024,475.0,22/79 lancefield drive,caroline springs,3023.0,3,2,-37.71044819999999,144.7371436,213041360,Greater Melbourne,32.77503
210,2,House,2024,490.0,41 yearling promenade,werribee,3030.0,4,2,-37.9167554,144.651981,213051468,Greater Melbourne,38.53895
211,2,House,2024,580.0,10 hydrangea drive,point cook,3030.0,4,2,-37.9039092,144.745455,213051466,Greater Melbourne,27.74184
212,1,Townhouse,2024,480.0,16 palmero street,epping,3076.0,2,1,-37.6335139,145.0030512,209041433,Greater Melbourne,25.224580000000003
213,2,House,2024,625.0,5 compton street,mitcham,3132.0,3,1,-37.8058542,145.1884076,211041270,Greater Melbourne,23.59844
214,1,Unit,2024,490.0,27/789 malvern road,toorak,3142.0,2,1,-37.8501205,145.0199197,206061138,Greater Melbourne,8.067770000000001
215,2,House,2024,580.0,8 o'connor road,knoxfield,3180.0,3,1,-37.8968126,145.2407232,211011254,Greater Melbourne,35.94496
216,1,Unit,2024,485.0,1/20-24 ameily crescent,reservoir,3073.0,2,1,-37.709451,144.9949,209021526,Greater Melbourne,14.233780000000001
217,1,House,2024,600.0,2 jirrahlinga terrace,craigieburn,3064.0,4,2,-37.5986675,144.9127769,210051443,Greater Melbourne,27.671509999999998
218,2,House,2024,510.0,9 bindarri road,manor lakes,3024.0,4,2,-37.8673831,144.5962024,213051579,Greater Melbourne,48.777550000000005
219,2,Unit,2024,720.0,301/639 little bourke street,melbourne,3000.0,2,2,-37.8160159,144.9535507,206041505,Greater Melbourne,1.11377
220,1,House,2024,600.0,7 marie street,vermont,3133.0,3,2,-37.8321057,145.207258,211041272,Greater Melbourne,29.30379
221,1,Unit,2024,930.0,3103/618 lonsdale street,melbourne,3000.0,2,2,-37.81441450000001,144.9539107,206041505,Greater Melbourne,1.06116
222,2,Unit,2024,820.0,1105/28 bank street,south melbourne,3205.0,3,1,-37.8315373,144.9691738,206051512,Greater Melbourne,2.51774
223,2,House,2024,850.0,15 oconnor avenue,clyde north,3978.0,5,3,-38.1030616,145.3788059,212031556,Greater Melbourne,54.6215
224,0,House,2024,260.0,13 norris crescent,bundoora,3083.0,1,1,-37.6958469,145.0411123,209041217,Greater Melbourne,17.231840000000002
225,1,Townhouse,2024,685.0,5 ascot street,doncaster east,3109.0,3,1,-37.7853154,145.1615071,207021425,Greater Melbourne,22.52682
226,1,Townhouse,2024,1050.0,534 park street,princes hill,3054.0,3,2,-37.779409,144.9681912,206071140,Greater Melbourne,4.47983
227,0,Unit,2024,600.0,900/8 waterview walk,docklands,3008.0,1,1,-37.8196989,144.9481318,206041118,Greater Melbourne,1.91103
228,1,Unit,2024,690.0,2711/151 city road,southbank,3006.0,2,1,-37.8236,144.9631013,206041509,Greater Melbourne,1.73535
229,2,House,2024,1495.0,1/511 balcombe road,beaumaris,3193.0,4,3,-37.9770179,145.0262498,208011168,Greater Melbourne,23.81408
230,1,Townhouse,2024,560.0,2/7 cypress avenue,boronia,3155.0,2,2,-37.863514,145.2817062,211011446,Greater Melbourne,36.06652
231,3,House,2024,640.0,1634 dandenong road,huntingdale,3166.0,4,1,-37.9060604,145.1132549,212051326,Greater Melbourne,19.70486
232,1,Townhouse,2024,600.0,949-951 high st,reservoir,3073.0,2,2,-37.7104009,145.0083267,209021526,Greater Melbourne,13.27825
233,5,House,2024,900.0,168 killara road,gruyere,3770.0,3,2,-37.7433418,145.4769469,211051285,Greater Melbourne,57.82818
234,1,Unit,2024,620.0,1/38 pasley street,sunbury,3429.0,3,3,-37.5785852,144.7245426,210041540,Greater Melbourne,39.425779999999996
235,1,Townhouse,2024,790.0,3b2b portland pl,burwood east,3151.0,3,2,-37.8477995,145.1341743,207031166,Greater Melbourne,18.897299999999998
236,1,Unit,2024,1050.0,3604e/888 collins street,docklands,3008.0,3,2,-37.8204734,144.9425146,206041118,Greater Melbourne,2.5259
237,2,House,2024,620.0,2 boomerang court,narre warren south,3805.0,4,2,-38.0610956,145.2982795,212031458,Greater Melbourne,46.59651
238,0,Unit,2024,350.0,1/19 cole street,williamstown,3016.0,1,1,-37.863778,144.9026205,213021346,Greater Melbourne,14.20013
239,4,House,2024,750.0,28 halliday street,mount waverley,3149.0,3,2,-37.8813253,145.1118037,212051324,Greater Melbourne,18.24436
240,0,Unit,2024,1040.0,1808/15-85 gladstone st,south melbourne,3205.0,2,2,-37.8295123,144.9509871,206051511,Greater Melbourne,3.13323
241,1,Unit,2024,750.0,1808/45 haig street,southbank,3006.0,2,2,-37.8270373,144.9574509,206041508,Greater Melbourne,2.13969
242,4,House,2024,895.0,71 bulleen road,balwyn north,3104.0,4,2,-37.7866536,145.0756009,207011148,Greater Melbourne,13.199959999999999
243,2,House,2024,570.0,53 lucerne drive,truganina,3029.0,4,2,-37.8165057,144.7096791,213051586,Greater Melbourne,28.77876
244,2,Townhouse,2024,700.0,5/13-15 kendall street,ringwood,3134.0,3,2,-37.8176332,145.2296345,211031266,Greater Melbourne,27.99618
245,2,House,2024,580.0,24 ajax street,truganina,3029.0,4,2,-37.83518979999999,144.7212856,213051586,Greater Melbourne,23.67869
246,2,Townhouse,2024,600.0,7/24 craig street,keilor east,3033.0,2,2,-37.743442,144.8803594,210011534,Greater Melbourne,14.82325
247,2,House,2024,480.0,50 bursa drive,wyndham vale,3024.0,3,2,-37.86946349999999,144.6120472,213051589,Greater Melbourne,37.47118
248,1,Unit,2024,570.0,1/647 inkerman road,caulfield north,3161.0,2,1,-37.8691791,145.0205525,208021177,Greater Melbourne,10.46097
249,1,Unit,2024,450.0,3/71 oberon avenue,st albans,3021.0,2,1,-37.7386394,144.8081162,213011334,Greater Melbourne,22.915830000000003
250,1,Unit,2024,775.0,3408/100 harbour esplanade,docklands,3008.0,2,2,-37.81837549999999,144.9468886,206041118,Greater Melbourne,2.0908800000000003
251,1,House,2024,500.0,19 view street,hampton park,3976.0,3,1,-38.0324579,145.255951,212031562,Greater Melbourne,40.96653
252,1,Unit,2024,550.0,14/894 burke road,canterbury,3126.0,2,1,-37.8171218,145.0596069,207011155,Greater Melbourne,9.03465
253,0,Unit,2024,670.0,1707/408 spencer street,west melbourne,3003.0,2,1,-37.81058609999999,144.9505353,206041510,Greater Melbourne,1.72831
254,2,Unit,2024,900.0,203/418 st kilda road,melbourne,3004.0,3,2,-37.8358416,144.9747364,206051128,Greater Melbourne,2.97823
255,1,Unit,2024,550.0,2/4 spurling street,maidstone,3012.0,2,1,-37.7845846,144.8762268,213031347,Greater Melbourne,10.00177
256,0,Unit,2024,550.0,511/133 jolimont rd,east melbourne,3002.0,1,1,-37.8180346,144.9781787,206041119,Greater Melbourne,2.02854
257,2,Townhouse,2024,750.0,4/17-19 queens avenue,doncaster,3108.0,3,2,-37.78749699999999,145.1343061,207021157,Greater Melbourne,19.076610000000002
258,1,Unit,2024,600.0,3/360 glen eira road,elsternwick,3185.0,2,1,-37.8792555,145.0158169,208021179,Greater Melbourne,11.48307
259,2,House,2024,540.0,91 clipstone crescent,fraser rise,3336.0,4,2,-37.6895282,144.7054808,213041574,Greater Melbourne,40.96542
260,1,Unit,2024,530.0,76/39 dorcas street,south melbourne,3205.0,1,1,-37.8308759,144.9686394,206051512,Greater Melbourne,2.44535
261,2,House,2024,1150.0,15 wellman street,box hill south,3128.0,4,2,-37.8296362,145.1162455,207031163,Greater Melbourne,14.770370000000002
262,0,Unit,2024,190.0,43 benga avenue,dandenong,3175.0,1,1,-37.9789468,145.2006568,212041563,Greater Melbourne,33.01529
263,1,Unit,2024,440.0,6/28 holloway street,ormond,3204.0,2,1,-37.9021203,145.0479148,208021182,Greater Melbourne,16.63313
264,1,Unit,2024,700.0,4/1086 lygon street,carlton north,3054.0,3,1,-37.7801627,144.9706362,206071140,Greater Melbourne,4.1693500000000006
265,2,House,2024,520.0,44 linacre crescent,melton south,3338.0,4,2,-37.7099954,144.5577743,213041578,Greater Melbourne,46.89378
266,2,House,2024,690.0,33 balmain drive,berwick,3806.0,4,2,-38.0232192,145.3353252,212021293,Greater Melbourne,44.887629999999994
267,2,House,2024,570.0,18 wondrous boulevard,tarneit,3029.0,4,2,-37.8617134,144.6466222,213051582,Greater Melbourne,34.307300000000005
268,0,Unit,2024,540.0,4 stradishall way,tullamarine,3043.0,3,2,-37.6954086,144.8829692,210051250,Greater Melbourne,19.181639999999998
269,1,Unit,2024,450.0,3/31 erskine avenue,reservoir,3073.0,2,1,-37.7224294,145.0240589,209021525,Greater Melbourne,13.51356
270,5,House,2024,610.0,117 evell street,glenroy,3046.0,4,1,-37.698011,144.9402132,210031535,Greater Melbourne,15.57959
271,2,House,2024,470.0,17 highridge crescent,airport west,3042.0,3,1,-37.7261122,144.8830715,210011226,Greater Melbourne,15.0304
272,1,Unit,2024,570.0,210/101 tram road,doncaster,3108.0,2,2,-37.7877328,145.1243703,207021157,Greater Melbourne,18.07553
273,1,House,2024,650.0,11 rothsay avenue,burwood,3125.0,3,1,-37.8440632,145.119606,207031165,Greater Melbourne,17.1677
274,1,Unit,2024,620.0,1505/8 joseph road,footscray,3011.0,2,2,-37.8003267,144.9095584,213031348,Greater Melbourne,6.240609999999999
275,2,House,2024,520.0,58 eureka drive,manor lakes,3024.0,4,2,-37.8715439,144.603876,213051579,Greater Melbourne,38.04968
276,2,Unit,2024,1050.0,46/333 coventry street,south melbourne,3205.0,2,2,-37.8331983,144.9562629,206051512,Greater Melbourne,3.09697
277,4,House,2024,560.0,24 intervale drive,avondale heights,3034.0,3,1,-37.7513182,144.8577164,210011533,Greater Melbourne,15.28031
278,2,House,2024,550.0,12 wells rd,point cook,3030.0,4,2,-37.9087695,144.7220473,213051466,Greater Melbourne,31.61549
279,0,Unit,2024,704.0,b205/348 macaulay road,kensington,3031.0,1,1,-37.7947678,144.9342535,206041121,Greater Melbourne,4.1856599999999995
280,1,Unit,2024,470.0,29/31 moreland street,footscray,3011.0,1,1,-37.8020911,144.9075098,213031348,Greater Melbourne,6.54077
281,0,Unit,2024,650.0,2606/568 collins st,melbourne,3000.0,2,2,-37.8183759,144.9554361,206041505,Greater Melbourne,1.3564
282,1,Unit,2024,410.0,4/87 federal drive,wyndham vale,3024.0,2,1,-37.8794581,144.6272906,213051589,Greater Melbourne,36.00855
283,1,Unit,2024,455.0,306/157 park road,cheltenham,3192.0,1,1,-37.965061,145.055185,208031188,Greater Melbourne,25.18276
284,1,Unit,2024,480.0,2/8 truscott street,glenroy,3046.0,2,1,-37.7105451,144.9365081,210031535,Greater Melbourne,14.12883
285,2,House,2024,510.0,15 samuel drive,campbellfield,3061.0,3,1,-37.6745231,144.9707192,210051243,Greater Melbourne,18.21313
286,2,House,2024,550.0,7 league road,donnybrook,3064.0,4,2,-37.5315621,144.9983193,209041225,Greater Melbourne,42.50818
287,1,House,2024,400.0,212/90 white street,mordialloc,3195.0,1,1,-38.0001576,145.0970676,208031193,Greater Melbourne,32.92776
288,2,House,2024,490.0,2 fabular street,donnybrook,3064.0,3,2,-37.5431253,144.9782215,209041225,Greater Melbourne,39.397059999999996
289,1,Unit,2024,640.0,401/1 palmer street,richmond,3121.0,1,1,-37.8165472,145.0036039,206071518,Greater Melbourne,4.30409
290,2,House,2024,500.0,29 boomerang road,donnybrook,3064.0,4,2,-37.5466568,145.0149014,209041225,Greater Melbourne,42.77624
291,1,House,2024,540.0,22 kipling drive,officer,3809.0,3,2,-38.07000480000001,145.4103499,212011546,Greater Melbourne,53.3829
292,2,House,2024,640.0,7a borrie street,reservoir,3073.0,3,2,-37.7075818,145.0197526,209021523,Greater Melbourne,14.4549
293,0,Unit,2024,380.0,3/44 koonawarra street,clayton,3168.0,1,1,-37.9103279,145.1251056,212051567,Greater Melbourne,21.7578
294,0,Unit,2024,365.0,10/29 raleigh street,essendon,3040.0,1,1,-37.7536698,144.9228269,206031502,Greater Melbourne,9.42176
295,2,House,2024,570.0,2 portland avenue,truganina,3029.0,4,2,-37.819689,144.715365,213051586,Greater Melbourne,28.344630000000002
296,1,Unit,2024,550.0,1/252 mitcham road,mitcham,3132.0,2,1,-37.8056433,145.1901327,211041270,Greater Melbourne,24.07288
297,1,Unit,2024,380.0,2/37 rufus street,epping,3076.0,1,1,-37.64924389999999,145.0292629,209041432,Greater Melbourne,20.68839
298,2,House,2024,620.0,8 newington drive,cranbourne east,3977.0,4,2,-38.1156336,145.296178,212031558,Greater Melbourne,55.115
299,2,House,2024,540.0,16 moate street,langwarrin,3910.0,3,1,-38.15344839999999,145.1840804,214011374,Greater Melbourne,56.10236
300,1,House,2024,500.0,155 david drive,sunshine west,3020.0,3,2,-37.7888785,144.7886399,213011338,Greater Melbourne,20.54601
301,2,Unit,2024,900.0,205/590 camberwell road,camberwell,3124.0,2,2,-37.846373,145.073518,207011149,Greater Melbourne,12.39798
302,2,House,2024,560.0,6 palmatum street,sunbury,3429.0,4,2,-37.6160366,144.7737206,210041540,Greater Melbourne,35.546879999999994
303,0,House,2024,1200.0,252 drummond street,carlton,3053.0,4,2,-37.8001539,144.9688095,206041117,Greater Melbourne,2.10524
304,0,Studio,2024,400.0,616/268 flinders street,melbourne,3000.0,1,1,-37.8177097,144.9655575,206041503,Greater Melbourne,0.57973
305,4,House,2024,750.0,33 yallambie road,macleod,3085.0,3,2,-37.7196534,145.0847507,209011203,Greater Melbourne,19.17583
306,2,House,2024,500.0,1188 ison road,manor lakes,3024.0,4,2,-37.8688975,144.5936794,213051579,Greater Melbourne,48.97148
307,0,House,2024,595.0,18 finsbury street,flemington,3031.0,2,1,-37.7860203,144.9299082,206031115,Greater Melbourne,4.86186
308,2,House,2024,500.0,32 xenia street,manor lakes,3024.0,4,2,-37.8797484,144.5887922,213051579,Greater Melbourne,48.482510000000005
309,0,Unit,2024,950.0,3706/371 little lonsdale street,melbourne,3000.0,2,2,-37.8117769,144.9610182,206041504,Greater Melbourne,0.49006
310,2,House,2024,480.0,15 hardhead street,wallan,3756.0,4,2,-37.40577529999999,144.9620541,209041224,Greater Melbourne,54.253389999999996
311,1,House,2024,400.0,10 charlesworth street,laverton,3028.0,3,1,-37.8595045,144.7753925,213051363,Greater Melbourne,21.35846
312,4,House,2024,1200.0,17 liddiard street,hawthorn,3122.0,4,1,-37.8188133,145.0378893,207011519,Greater Melbourne,7.66454
313,2,House,2024,540.0,22 tasman street,preston,3072.0,2,1,-37.7415002,144.986246,209021429,Greater Melbourne,9.44473
314,2,House,2024,949.0,24 malcolm court,mount waverley,3149.0,4,3,-37.87765,145.1125182,212051324,Greater Melbourne,18.95001
315,2,Townhouse,2024,640.0,2,"7/53 pultney street, dandenong",3175.0,3,2,-37.9916984,145.2178031,212041563,Greater Melbourne,34.84303
316,1,Unit,2024,430.0,4/10 derby street,fawkner,3060.0,2,1,-37.7194378,144.9726812,210031237,Greater Melbourne,12.76634
317,1,Unit,2024,425.0,9/50 catamaran drive,werribee south,3030.0,2,1,-37.9659215,144.7058815,213051368,Greater Melbourne,38.80398
318,0,Unit,2024,700.0,l37/452 elizabeth st,melbourne,3000.0,2,1,-37.8079005,144.9605172,206041504,Greater Melbourne,0.7553300000000001
319,1,Unit,2024,430.0,104/125 turner street,abbotsford,3067.0,1,1,-37.7991984,145.0010603,206071139,Greater Melbourne,4.9060299999999994
320,1,Unit,2024,520.0,1208/50 albert street,south melbourne,3205.0,1,1,-37.8328503,144.9714664,206051512,Greater Melbourne,2.5293400000000004
321,6,House,2024,1100.0,16 everest crescent,olinda,3788.0,4,2,-37.8587062,145.3651456,211051282,Greater Melbourne,48.87704
322,1,Townhouse,2024,500.0,2/9 poplar street,thomastown,3074.0,2,1,-37.6788671,145.0248429,209041223,Greater Melbourne,17.8532
323,1,Unit,2024,340.0,3/54 mcnicholl way,delahey,3037.0,2,1,-37.7125744,144.7822029,213011331,Greater Melbourne,26.2619
324,1,Unit,2024,495.0,2/63 leicester street,preston,3072.0,2,1,-37.7432726,144.991218,209021429,Greater Melbourne,9.66327
325,1,Unit,2024,400.0,5/49 hawdon street,heidelberg,3084.0,1,1,-37.7588228,145.0639239,209011198,Greater Melbourne,14.60685
326,1,House,2024,550.0,8 juncus street,narre warren,3805.0,3,2,-38.0220095,145.290873,212021456,Greater Melbourne,44.15221
327,0,Unit,2024,500.0,806/25-33 wills street,melbourne,3000.0,1,1,-37.8107757,144.9569269,206041504,Greater Melbourne,0.97907
328,1,Townhouse,2024,420.0,3 kai close,caroline springs,3023.0,2,1,-37.7239469,144.7385519,213041463,Greater Melbourne,30.960330000000003
329,2,House,2024,650.0,4 nature road,tarneit,3029.0,4,3,-37.8194775,144.6969436,213051584,Greater Melbourne,30.32041
330,2,House,2024,650.0,29 fernbank crescent,mulgrave,3170.0,4,2,-37.9347147,145.2067867,212051325,Greater Melbourne,29.11284
331,1,Townhouse,2024,650.0,2/43 endeavour crescent,endeavour hills,3802.0,4,2,-37.9753253,145.2568853,212021454,Greater Melbourne,35.04726
332,0,Unit,2024,420.0,109/57 spencer street,melbourne,3000.0,1,1,-37.8171323,144.9533273,206041505,Greater Melbourne,0.9860399999999999
333,1,Unit,2024,560.0,2/12 hotham street,hughesdale,3166.0,2,1,-37.9012766,145.0790151,208021180,Greater Melbourne,18.77226
334,0,Studio,2024,280.0,31 rosamond road,maidstone,3012.0,1,1,-37.7855164,144.883447,213031347,Greater Melbourne,9.48244
335,1,House,2024,600.0,7 slough street,deer park,3023.0,4,2,-37.7661807,144.7723671,213011569,Greater Melbourne,25.02367
336,1,Unit,2024,780.0,1112/151 city road,southbank,3006.0,2,2,-37.8236,144.9631013,206041509,Greater Melbourne,1.73535
337,1,Unit,2024,500.0,7/170 st kilda road,st kilda,3182.0,1,1,-37.8611996,144.9849826,206051513,Greater Melbourne,6.20418
338,0,Unit,2024,620.0,2101w/42-48 balston street,southbank,3006.0,2,1,-37.826576,144.962675,206041509,Greater Melbourne,2.08182
339,2,Townhouse,2024,450.0,19 steadfield circuit,melton south,3338.0,3,2,-37.7152866,144.5748,213041578,Greater Melbourne,45.98105
340,2,House,2024,495.0,11 ruffy drive,cranbourne,3977.0,3,1,-38.0987817,145.2752976,212031300,Greater Melbourne,50.47624
341,4,House,2024,300.0,11 mansfield court,bundoora,3083.0,1,1,-37.703576,145.0578895,209011196,Greater Melbourne,16.742669999999997
342,1,House,2024,545.0,1 chantelle parade,tarneit,3029.0,3,2,-37.8532499,144.6658526,213051585,Greater Melbourne,33.42253
343,2,House,2024,790.0,16 astra av,truganina,3029.0,5,3,-37.8529406,144.741697,213051587,Greater Melbourne,23.425819999999998
344,1,Unit,2024,800.0,5416/228 la trobe street,melbourne,3004.0,2,2,-37.809615,144.9623021,206041504,Greater Melbourne,0.64237
345,2,House,2024,550.0,4 brockwood street,deanside,3336.0,4,2,-37.7322167,144.7041361,213041574,Greater Melbourne,32.754889999999996
346,2,House,2024,580.0,93 selandra boulevard,clyde north,3978.0,4,2,-38.1129753,145.3238561,212031557,Greater Melbourne,53.698449999999994
347,2,House,2024,500.0,49 springs road,donnybrook,3064.0,4,2,-37.5401432,144.9695914,209041225,Greater Melbourne,38.59836
348,1,Unit,2024,670.0,209/1 bent street,northcote,3070.0,2,2,-37.7676336,144.9988054,206021500,Greater Melbourne,7.41239
349,0,Unit,2024,660.0,1903/245 city road,southbank,3006.0,2,2,-37.826641,144.9596778,206041509,Greater Melbourne,1.87082
350,2,House,2024,550.0,127 pioneer drive,aintree,3336.0,4,2,-37.7268387,144.6670703,213041359,Greater Melbourne,37.22678
351,4,House,2024,470.0,10 forbes boulevard,wallan,3756.0,3,1,-37.4144046,144.9851714,209041224,Greater Melbourne,51.981480000000005
352,1,Unit,2024,300.0,1048 aviation road,werribee south,3030.0,1,1,-37.9267581,144.7025494,213051368,Greater Melbourne,34.27673
353,2,House,2024,775.0,368 duke street,sunshine north,3020.0,4,3,-37.76857630000001,144.8494669,213011337,Greater Melbourne,13.680719999999999
354,1,Unit,2024,630.0,105/16-18 tranmere avenue,carnegie,3163.0,2,2,-37.889097,145.0610634,208021176,Greater Melbourne,16.02949
355,1,Unit,2024,515.0,11/2 woodvale road,boronia,3155.0,2,1,-37.8623798,145.2766269,211011446,Greater Melbourne,35.582209999999996
356,2,Townhouse,2024,520.0,12 collie walk,sunbury,3429.0,3,2,-37.5950492,144.7055955,210041540,Greater Melbourne,38.376839999999994
357,2,House,2024,570.0,16 celosia wy,tarneit,3029.0,4,2,-37.8092765,144.6824085,213051584,Greater Melbourne,32.878209999999996
358,1,Unit,2024,550.0,4/9 wilma avenue,dandenong,3175.0,3,1,-37.9834892,145.2014344,212041563,Greater Melbourne,33.53406
359,0,Unit,2024,630.0,1908/5 sutherland street,melbourne,3000.0,2,1,-37.811416,144.9608504,206041504,Greater Melbourne,0.46044999999999997
360,3,House,2024,430.0,125 morris street,sunshine,3020.0,3,1,-37.7929489,144.8316311,213011336,Greater Melbourne,13.074459999999998
361,0,Unit,2024,550.0,2402/8 downie street,melbourne,3000.0,2,1,-37.8203424,144.9559928,206041505,Greater Melbourne,1.2966900000000001
362,1,House,2024,800.0,195 munro street,coburg,3058.0,3,2,-37.7433755,144.9492675,206011498,Greater Melbourne,9.96274
363,2,House,2024,570.0,18 chestnut street,aintree,3336.0,4,2,-37.7164159,144.6772883,213041359,Greater Melbourne,37.35154
364,2,Townhouse,2024,740.0,3/63 may street,glenroy,3046.0,3,3,-37.6970036,144.9463983,210031535,Greater Melbourne,16.198790000000002
365,1,Unit,2024,500.0,403/88 carlisle street,st kilda,3182.0,1,1,-37.8674896,144.9859049,206051513,Greater Melbourne,6.80163
366,2,Unit,2024,1300.0,404/155 beach street,port melbourne,3207.0,3,2,-37.8392357,144.9257113,206051130,Greater Melbourne,5.697979999999999
367,0,Studio,2024,320.0,7/20 warringa crescent,hoppers crossing,3029.0,1,1,-37.8819158,144.6937485,213051362,Greater Melbourne,28.615389999999998
368,2,Townhouse,2024,800.0,9 kelvin place,carlton,3053.0,3,2,-37.8038676,144.9643215,206041117,Greater Melbourne,1.6771099999999999
369,1,House,2024,520.0,25 elizabeth avenue,dromana,3936.0,3,2,-38.33949459999999,144.9705843,214021377,Greater Melbourne,85.22939
370,1,Unit,2024,465.0,1/4 del mar court,keilor lodge,3038.0,2,1,-37.6990803,144.804848,213011340,Greater Melbourne,22.798669999999998
371,5,House,2024,600.0,65 princes highway,werribee,3030.0,3,2,-37.8967823,144.6730543,213051368,Greater Melbourne,30.16753
372,2,Townhouse,2024,870.0,unit 1/2 arvern ave,avondale heights,3034.0,4,3,-37.7656319,144.8675774,210011533,Greater Melbourne,13.172870000000001
373,3,House,2024,1610.0,2 leighton court,toorak,3142.0,4,3,-37.8443102,145.0119762,206061138,Greater Melbourne,7.97854
374,2,House,2024,600.0,177 flaxen hills road,doreen,3754.0,4,2,-37.5881221,145.1316435,209041527,Greater Melbourne,37.32859
375,2,House,2024,550.0,3 vestige street,donnybrook,3064.0,4,2,-37.5429769,144.9786817,209041225,Greater Melbourne,39.44965
376,1,House,2024,650.0,12 kirkham road,murrumbeena,3163.0,3,1,-37.8999581,145.0723126,208021181,Greater Melbourne,19.387490000000003
377,2,House,2024,1425.0,24 nungerner street,balwyn,3103.0,4,2,-37.8057067,145.0692772,207011147,Greater Melbourne,14.00248
378,2,House,2024,750.0,18 overland drive,vermont south,3133.0,4,2,-37.8624451,145.1850585,211041273,Greater Melbourne,28.09726
379,1,Unit,2024,460.0,204/3 tannock st,balwyn north,3104.0,1,1,-37.790981,145.0945942,207011148,Greater Melbourne,16.0414
380,2,House,2024,470.0,5 valonia court,craigieburn,3064.0,3,1,-37.5948568,144.9246321,210051441,Greater Melbourne,27.72326
381,2,House,2024,800.0,30 cambridge street,collingwood,3066.0,3,1,-37.8079589,144.9851596,206071141,Greater Melbourne,2.6813800000000003
382,2,House,2024,550.0,11 riparian way,brookfield,3338.0,4,2,-37.707557,144.5495271,213041571,Greater Melbourne,48.5252
383,1,Townhouse,2024,530.0,1/4 pratt street,reservoir,3073.0,2,1,-37.7107496,145.0106262,209021523,Greater Melbourne,13.93474
384,2,House,2024,470.0,10 monument creek road,rochford,3442.0,3,1,-37.3154806,144.6552821,210021235,Greater Melbourne,82.59141000000001
385,0,House,2024,500.0,7 parkland avenue,hampton park,3976.0,3,1,-38.0318238,145.2582135,212031562,Greater Melbourne,41.046910000000004
386,2,House,2024,560.0,16 monaro street,tarneit,3029.0,4,2,-37.8427419,144.6821189,213051583,Greater Melbourne,28.112299999999998
387,2,House,2024,895.0,1/139 ellesmere parade,rosanna,3084.0,4,3,-37.7315869,145.0669644,209011198,Greater Melbourne,17.76248
388,0,Studio,2024,380.0,103/58 la trobe street,melbourne,3000.0,0,1,-37.8084287,144.9670537,206041503,Greater Melbourne,1.3797000000000001
389,1,Unit,2024,470.0,8/75 droop street,footscray,3011.0,2,1,-37.7952545,144.8956857,213031348,Greater Melbourne,7.75142
390,2,House,2024,540.0,2/48 mahoneys road,riddells creek,3431.0,3,2,-37.4578937,144.6796761,210021234,Greater Melbourne,62.92269
391,2,House,2024,520.0,13 gansha street,weir views,3338.0,4,2,-37.7233338,144.5665184,213041578,Greater Melbourne,48.72649
392,1,Townhouse,2024,550.0,8/695 barkly street,west footscray,3012.0,3,1,-37.7972513,144.8677634,213031351,Greater Melbourne,10.35843
393,2,House,2024,550.0,7 tower street,kilsyth,3137.0,3,1,-37.8023933,145.3238023,211051277,Greater Melbourne,36.854099999999995
394,2,House,2024,570.0,295 blackburn road,burwood east,3151.0,4,2,-37.8467666,145.1536979,207031166,Greater Melbourne,19.84069
395,2,House,2024,1150.0,2a wilson street,glen iris,3146.0,3,3,-37.8621351,145.0408403,208041194,Greater Melbourne,11.41601
396,2,House,2024,600.0,31 bolivar esplanade,truganina,3029.0,4,2,-37.85151889999999,144.7388222,213051587,Greater Melbourne,23.85719
397,2,House,2024,500.0,25 brockwell crescent,manor lakes,3024.0,4,2,-37.8666407,144.6039288,213051579,Greater Melbourne,38.10569
398,1,Unit,2024,350.0,18/57 kingsville street,kingsville,3012.0,1,1,-37.8099988,144.8785969,213031350,Greater Melbourne,10.77701
399,4,House,2024,460.0,94 heaths road,hoppers crossing,3029.0,3,1,-37.8787076,144.6967505,213051362,Greater Melbourne,27.71264
400,1,House,2024,340.0,1 & 2/23 koonawarra street,clayton,3168.0,1,1,-37.9085983,145.1246941,212051567,Greater Melbourne,21.56712
401,1,Unit,2024,530.0,1808/8 hallenstein street,footscray,3011.0,1,1,-37.8000429,144.9082015,213031348,Greater Melbourne,6.73576
402,4,House,2024,410.0,31 bridgeford crescent,melton south,3338.0,3,1,-37.7138757,144.5741994,213041578,Greater Melbourne,45.82341
403,0,Unit,2024,550.0,3/22 jackson street,st kilda,3182.0,2,1,-37.861807,144.975599,206051514,Greater Melbourne,7.2881599999999995
404,2,House,2024,540.0,21 terrigal road,truganina,3029.0,4,2,-37.7541214,144.6816886,213041359,Greater Melbourne,35.23599
405,1,House,2024,500.0,1/563 clayton road,clayton south,3169.0,2,1,-37.9426884,145.1159924,212041310,Greater Melbourne,25.62909
406,2,Unit,2024,435.0,3/9-11 gibson court,altona meadows,3028.0,2,1,-37.87755740000001,144.7726407,213021342,Greater Melbourne,23.72123
407,0,Unit,2024,480.0,4207/220 spencer street,melbourne,3000.0,1,1,-37.815577,144.9528979,206041505,Greater Melbourne,1.1086099999999999
408,1,Unit,2024,599.0,3/647 inkerman road,caulfield north,3161.0,2,1,-37.8691926,145.0205502,208021177,Greater Melbourne,10.46101
409,1,Unit,2024,500.0,2/18 blackburn street,surrey hills,3127.0,2,1,-37.8214328,145.0995979,207011155,Greater Melbourne,12.80536
410,2,Townhouse,2024,960.0,8/147 woodhouse grove,box hill north,3129.0,4,2,-37.8019225,145.131936,207031164,Greater Melbourne,20.46371
411,1,Unit,2024,575.0,24/14 chapel street,st kilda,3182.0,2,1,-37.8625356,144.9916369,206051134,Greater Melbourne,6.63411
412,1,Unit,2024,450.0,9/67a barkly street,st kilda,3182.0,2,1,-37.8613816,144.9820667,206051514,Greater Melbourne,5.93789
413,2,House,2024,630.0,51 morningside boulevard,cranbourne west,3977.0,4,2,-38.0982789,145.2499538,212031304,Greater Melbourne,51.06688
414,1,Unit,2024,880.0,5106/560 lonsdale street,melbourne,3000.0,2,2,-37.8139691,144.9556528,206041505,Greater Melbourne,0.8678899999999999
415,2,House,2024,680.0,3/37 paula crescent,doncaster east,3109.0,3,2,-37.799511,145.167373,207021425,Greater Melbourne,22.234419999999997
416,1,Townhouse,2024,580.0,334b highett road,highett,3190.0,2,1,-37.9491455,145.0440234,208031188,Greater Melbourne,21.479020000000002
417,1,Unit,2024,595.0,2610/8 hallenstein street,footscray,3011.0,2,1,-37.8000429,144.9082015,213031348,Greater Melbourne,6.73576
418,2,House,2024,720.0,12 anakie court,rosebud,3939.0,3,2,-38.3791404,144.9281813,214021384,Greater Melbourne,92.84598
419,1,House,2024,595.0,757 princes highway,springvale,3171.0,3,1,-37.9384725,145.1617095,212041317,Greater Melbourne,26.612659999999998
420,2,Unit,2024,410.0,3/2 sylvia close,hillside,3037.0,2,1,-37.7029446,144.7512256,213041575,Greater Melbourne,28.13121
421,1,Townhouse,2024,650.0,22/411 lygon street,carlton,3053.0,2,1,-37.7946749,144.9677291,206041117,Greater Melbourne,2.77409
422,2,House,2024,575.0,16 st clems road,doncaster east,3109.0,3,2,-37.7995526,145.1617675,207021425,Greater Melbourne,20.98232
423,1,Unit,2024,670.0,325/111 canning street,north melbourne,3051.0,2,2,-37.7959439,144.9412384,206041506,Greater Melbourne,3.81724
424,0,Unit,2024,450.0,202/46 villiers street,north melbourne,3051.0,1,1,-37.799535,144.953401,206041506,Greater Melbourne,2.0892
425,0,Unit,2024,530.0,196/173 city road,southbank,3006.0,1,1,-37.8244145,144.9621883,206041509,Greater Melbourne,1.99945
426,0,Unit,2024,550.0,20/55 alexandra street,st kilda east,3183.0,2,1,-37.8644949,145.0029153,206051134,Greater Melbourne,8.61818
427,0,House,2024,695.0,14 mell street,toorak,3142.0,2,1,-37.8468137,145.0064307,206061138,Greater Melbourne,7.00775
428,1,Unit,2024,430.0,2/6 gladstone road,briar hill,3088.0,2,1,-37.709277,145.1188891,209011202,Greater Melbourne,22.96038
429,2,Unit,2024,895.0,13/1528 malvern road,glen iris,3146.0,3,2,-37.8543186,145.0499882,208041194,Greater Melbourne,11.08315
430,2,House,2024,570.0,101 butterfly boulevard,tarneit,3029.0,4,2,-37.8523944,144.6583121,213051585,Greater Melbourne,33.914480000000005
431,0,Unit,2024,530.0,1012/628 flinders street,docklands,3008.0,1,1,-37.8209722,144.9532542,206041118,Greater Melbourne,1.66472
432,0,House,2024,575.0,186 bell street,coburg,3058.0,3,1,-37.7404771,144.9604737,206011498,Greater Melbourne,9.97907
433,2,House,2024,1050.0,30 ryan road,pakenham,3810.0,4,2,-38.06826969999999,145.5160382,212011551,Greater Melbourne,65.30684
434,1,Unit,2024,680.0,303/1 shiel street,north melbourne,3051.0,2,2,-37.79827700000001,144.9438777,206041506,Greater Melbourne,3.3380799999999997
435,2,House,2024,480.0,8 synergy court,taylors hill,3037.0,3,2,-37.7113996,144.7426855,213041360,Greater Melbourne,32.44096
436,0,Unit,2024,680.0,2803/420 spencer street,west melbourne,3003.0,2,2,-37.8103214,144.9503971,206041510,Greater Melbourne,1.73174
437,4,Townhouse,2024,975.0,36a bath street,chelsea,3196.0,3,2,-38.054384,145.11536,208031186,Greater Melbourne,51.426550000000006
438,2,Townhouse,2024,490.0,32b hardwood grove,donnybrook,3064.0,3,2,-37.5322355,145.0002959,209041225,Greater Melbourne,42.84332
439,2,House,2024,820.0,94 surrey road north,south yarra,3141.0,2,1,-37.8417667,144.9989305,206061516,Greater Melbourne,5.704140000000001
440,1,Unit,2024,710.0,86/682 nicholson street,fitzroy north,3068.0,2,1,-37.7833306,144.9778284,206071143,Greater Melbourne,4.15946
441,1,House,2024,450.0,20 shandeau boardwalk,melton west,3337.0,3,2,-37.6873857,144.5559819,213041358,Greater Melbourne,45.81849
442,0,Unit,2024,450.0,809/570 swanston street,carlton,3053.0,2,1,-37.8033064,144.9637506,206041117,Greater Melbourne,1.62032
443,2,Townhouse,2024,650.0,6/6 chandler road,noble park,3174.0,3,2,-37.9623904,145.1869894,212041459,Greater Melbourne,32.03382
444,2,Townhouse,2024,625.0,2/1049 burke road,hawthorn east,3123.0,3,2,-37.8207843,145.0584068,207011152,Greater Melbourne,9.53227
445,1,Unit,2024,750.0,3811/1 balston street,southbank,3006.0,2,2,-37.8252355,144.9613893,206041509,Greater Melbourne,1.89445
446,2,Townhouse,2024,875.0,9/30-32 prince edward avenue,mckinnon,3204.0,3,2,-37.90868529999999,145.0408515,208021174,Greater Melbourne,16.63414
447,1,House,2024,480.0,56 mewat circuit,thornhill park,3335.0,4,2,-37.7302897,144.6248965,213041359,Greater Melbourne,42.15864
448,1,Unit,2024,490.0,8/67-69 roseberry street,ascot vale,3032.0,2,1,-37.7746136,144.9118057,206031113,Greater Melbourne,7.243930000000001
449,2,House,2024,530.0,10 dana drive,truganina,3029.0,4,2,-37.7474798,144.6778313,213041359,Greater Melbourne,34.60861
450,1,Unit,2024,595.0,13/667 glenhuntly road,caulfield,3162.0,2,1,-37.88615730000001,145.0171917,208021178,Greater Melbourne,12.94992
451,1,House,2024,850.0,7a steel street,spotswood,3015.0,4,3,-37.8249859,144.8720518,213021344,Greater Melbourne,9.94893
452,2,House,2024,425.0,1/86 hogans road,hoppers crossing,3029.0,3,1,-37.863363,144.69218,213051361,Greater Melbourne,29.95032
453,2,Townhouse,2024,720.0,2/4 worrell street,nunawading,3131.0,3,2,-37.8052847,145.1788677,211041271,Greater Melbourne,22.56917
454,0,Unit,2024,450.0,1310/80 abeckett street,melbourne,3000.0,1,1,-37.8090227,144.9610587,206041504,Greater Melbourne,0.62221
455,2,House,2024,1000.0,3/182 balaclava road,caulfield north,3161.0,4,3,-37.8720086,145.0210161,208021177,Greater Melbourne,10.899059999999999
456,1,Unit,2024,650.0,1/8 hull street,richmond,3121.0,2,2,-37.817333,144.9964662,206071518,Greater Melbourne,3.50807
457,2,House,2024,840.0,10 blackforest way,clyde north,3978.0,5,2,-38.10774120000001,145.3257521,212031557,Greater Melbourne,53.099779999999996
458,1,Unit,2024,650.0,1104/16 pentridge boulevard,coburg,3058.0,2,2,-37.7384534,144.9694507,206011497,Greater Melbourne,9.5794
459,0,House,2024,1350.0,86 herbert street,middle park,3206.0,4,2,-37.8461147,144.960398,206051128,Greater Melbourne,4.71339
460,2,Townhouse,2024,980.0,9 augusta square,heatherton,3202.0,4,3,-37.95880349999999,145.0808034,208031191,Greater Melbourne,25.056099999999997
461,1,Unit,2024,550.0,910d/604 swanston street,carlton,3053.0,1,1,-37.802333,144.9641676,206041117,Greater Melbourne,1.8553499999999998
462,1,House,2024,1400.0,20 nungerner street,balwyn,3103.0,5,2,-37.8059805,145.0693067,207011147,Greater Melbourne,14.03218
463,1,Townhouse,2024,520.0,4/13 grant street,dandenong,3175.0,2,1,-37.9846255,145.2251108,212041563,Greater Melbourne,34.15171
464,1,House,2024,470.0,5 graded street,manor lakes,3024.0,3,2,-37.8633008,144.5765448,213051579,Greater Melbourne,51.05805
465,1,Unit,2024,475.0,409/356-364 orrong road,caulfield north,3161.0,1,1,-37.8630451,145.0102218,208021177,Greater Melbourne,8.934790000000001
466,2,House,2024,570.0,13 avion crescent,truganina,3029.0,5,2,-37.8273533,144.7112902,213051586,Greater Melbourne,25.59871
467,2,House,2024,660.0,25 coolgardie way,doreen,3754.0,4,2,-37.6055284,145.1078635,209041528,Greater Melbourne,32.120599999999996
468,1,Unit,2024,580.0,1005/443 upper heidelberg road,ivanhoe,3079.0,2,1,-37.7550082,145.0557949,209011199,Greater Melbourne,15.70743
469,2,House,2024,630.0,15 bricola crescent,wollert,3750.0,4,2,-37.6035175,145.0023925,209041437,Greater Melbourne,33.32192
470,1,Unit,2024,425.0,2/111 victoria road,hawthorn east,3123.0,1,1,-37.8227398,145.0532809,207011152,Greater Melbourne,10.75042
471,1,Unit,2024,675.0,403/101 bay street,port melbourne,3207.0,2,2,-37.8406398,144.9400238,206051130,Greater Melbourne,4.67999
472,2,Unit,2024,700.0,1007/585 la trobe street,melbourne,3000.0,2,2,-37.8132649,144.9518327,206041505,Greater Melbourne,1.42003
473,2,House,2024,800.0,10 ward drive,mill park,3082.0,4,2,-37.6588599,145.0810039,209041220,Greater Melbourne,23.89312
474,2,Townhouse,2024,650.0,15 hubert avenue,glenroy,3046.0,3,2,-37.70519549999999,144.9322624,210031535,Greater Melbourne,14.93711
475,2,House,2024,520.0,26 barlow circuit,tarneit,3029.0,3,2,-37.8416646,144.6478269,213051582,Greater Melbourne,31.107509999999998
476,2,House,2024,1050.0,51 lord street,richmond,3121.0,4,1,-37.8214847,145.0049693,206071517,Greater Melbourne,4.43529
477,1,Unit,2024,380.0,3/9 peter court,dandenong,3175.0,2,1,-37.9715753,145.2219408,212041563,Greater Melbourne,32.66712
478,1,Unit,2024,525.0,3/25 mcbain street,altona,3018.0,2,1,-37.867245,144.827298,213021341,Greater Melbourne,17.98139
479,1,Unit,2024,725.0,72 orrong road,elsternwick,3185.0,2,2,-37.8847729,145.0060695,208021179,Greater Melbourne,9.53399
480,2,Unit,2024,950.0,5/11 yarrbat avenue,balwyn,3103.0,3,2,-37.8088069,145.0840923,207011147,Greater Melbourne,15.53496
481,2,House,2024,600.0,10 rebecca court,pakenham,3810.0,4,2,-38.0774633,145.4360449,212011552,Greater Melbourne,56.29174
482,1,House,2024,850.0,10 park street,northcote,3070.0,3,1,-37.7753779,144.9931223,206021500,Greater Melbourne,6.01359
483,1,Unit,2024,360.0,23/116 inkerman street,st kilda,3182.0,1,1,-37.8646124,144.9870887,206051513,Greater Melbourne,6.46104
484,2,House,2024,980.0,1a highbury street,balwyn north,3104.0,4,2,-37.793534,145.0732022,207011148,Greater Melbourne,12.870209999999998
485,1,Unit,2024,500.0,7/3 derby parade,caulfield north,3161.0,2,1,-37.87186310000001,145.0234868,208021177,Greater Melbourne,11.198030000000001
486,0,Unit,2024,690.0,3506/45 clarke street,southbank,3006.0,2,2,-37.8267241,144.95949,206041509,Greater Melbourne,2.38959
487,1,Unit,2024,600.0,1/16 houston street,mentone,3194.0,2,1,-37.9828614,145.0912332,208031190,Greater Melbourne,32.3666
488,1,Unit,2024,540.0,102/14-16 maroona road,carnegie,3163.0,2,2,-37.8890737,145.0475619,208021176,Greater Melbourne,15.034139999999999
489,1,Townhouse,2024,920.0,13 waxman parade,brunswick west,3055.0,4,2,-37.7584336,144.9343944,206011107,Greater Melbourne,8.76126
490,1,Unit,2024,730.0,210/16 woorayl street,carnegie,3163.0,2,2,-37.8857055,145.0586429,208021176,Greater Melbourne,15.27303
491,1,Unit,2024,520.0,3/5 cuthbert road,reservoir,3073.0,2,2,-37.7175428,145.0198282,209021523,Greater Melbourne,13.70775
492,1,Unit,2024,450.0,2/27 cranbourne road,frankston,3199.0,2,1,-38.1463332,145.1287635,214011371,Greater Melbourne,53.96035
493,1,Unit,2024,550.0,203/18 gilbert road,preston,3072.0,2,1,-37.75054009999999,144.9882798,209021429,Greater Melbourne,9.06889
494,0,Unit,2024,820.0,3610/120 a'beckett street,melbourne,3000.0,2,2,-37.8093086,144.9597389,206041504,Greater Melbourne,0.70698
495,2,House,2024,500.0,41 exploration avenue,werribee,3030.0,3,2,-37.918261,144.6395459,213051468,Greater Melbourne,37.24677
496,2,House,2024,600.0,12 clay crescent,rockbank,3335.0,5,3,-37.74268920000001,144.6594879,213041359,Greater Melbourne,37.21573
497,1,House,2024,675.0,20 deans road,upwey,3158.0,4,2,-37.912701,145.3284414,211051284,Greater Melbourne,44.26505
498,2,House,2024,700.0,22 lansdown street,balwyn north,3104.0,3,2,-37.7972751,145.0793709,207011148,Greater Melbourne,13.763729999999999
499,2,Unit,2024,795.0,804/4 acacia place,abbotsford,3067.0,2,2,-37.8117587,145.0141491,206071139,Greater Melbourne,5.10741
500,1,Unit,2024,650.0,1007/16 pentridge boulevard,coburg,3058.0,2,2,-37.7384534,144.9694507,206011497,Greater Melbourne,9.5794
501,0,Unit,2024,450.0,20/29-35 george street,east melbourne,3002.0,1,1,-37.8158477,144.9892078,206041119,Greater Melbourne,2.86487
502,1,Unit,2024,470.0,303/23-25 russell street,essendon,3040.0,1,1,-37.7566138,144.9167864,206031502,Greater Melbourne,9.57781
503,2,Unit,2024,800.0,2/90 grey street,st kilda,3182.0,2,2,-37.8630858,144.9808899,206051514,Greater Melbourne,7.11955
504,0,Unit,2024,425.0,4/29 belmont avenue north,glen iris,3146.0,2,1,-37.8546698,145.0484619,208041194,Greater Melbourne,11.273969999999998
505,2,House,2024,770.0,2 tanderum drive,coburg,3058.0,3,2,-37.737644,144.9710326,206011497,Greater Melbourne,9.59498
506,2,House,2024,635.0,3/26 church street,keilor,3036.0,3,2,-37.7213996,144.8340524,210011228,Greater Melbourne,19.03146
507,2,House,2024,460.0,9 peck place,kalkallo,3064.0,3,2,-37.5305701,144.9661477,210051445,Greater Melbourne,39.49718
508,2,House,2024,640.0,12 taupo crescent,rowville,3178.0,3,2,-37.9133612,145.2531088,211011256,Greater Melbourne,35.96871
509,2,House,2024,520.0,16 larissa street,heidelberg west,3081.0,3,1,-37.739953,145.037992,209011199,Greater Melbourne,13.25237
510,1,Townhouse,2024,530.0,3a chartwell crescent,derrimut,3026.0,3,2,-37.792337,144.7621272,213011570,Greater Melbourne,24.0567
511,1,House,2024,480.0,4 rolex court,noble park,3174.0,3,1,-37.9783722,145.1940322,212041459,Greater Melbourne,34.10801
512,1,Townhouse,2024,550.0,2/101 cramer street,preston,3072.0,2,1,-37.7393153,144.9914532,209021429,Greater Melbourne,10.06308
513,0,Unit,2024,710.0,4110/500 elizabeth street,melbourne,3000.0,2,2,-37.8071364,144.9603738,206041504,Greater Melbourne,0.88881
514,1,House,2024,520.0,39 westall street,thomastown,3074.0,3,1,-37.6752926,145.0105837,209041223,Greater Melbourne,17.62969
515,0,Unit,2024,700.0,2312/155 franklin street,melbourne,3000.0,2,1,-37.8088259,144.9595488,206041504,Greater Melbourne,0.95951
516,0,Unit,2024,820.0,4109/318 russell street,melbourne,3000.0,2,2,-37.8092796,144.9667048,206041503,Greater Melbourne,0.8870399999999999
517,0,Unit,2024,490.0,815/30 - 34 bray street,south yarra,3141.0,1,1,-37.8445236,144.9955847,206061516,Greater Melbourne,5.537649999999999
518,2,House,2024,500.0,21 valencia street,weir views,3338.0,4,2,-37.7371492,144.5717232,213041578,Greater Melbourne,47.0346
519,2,House,2024,620.0,108 argyle street,fawkner,3060.0,3,2,-37.7168796,144.9653583,210031237,Greater Melbourne,12.37997
520,2,House,2024,540.0,32 ovens circuit,whittlesea,3757.0,3,2,-37.503777,145.1141115,209041225,Greater Melbourne,45.86153
521,1,Unit,2024,560.0,908/17 arnold street,box hill,3128.0,2,1,-37.8143067,145.1170545,207031163,Greater Melbourne,18.98257
522,1,Unit,2024,515.0,213/52 darling street,south yarra,3141.0,1,1,-37.8353995,144.9922209,206061515,Greater Melbourne,4.15536
523,2,Townhouse,2024,800.0,1/9 standring close,donvale,3111.0,3,2,-37.7828514,145.1766753,211021261,Greater Melbourne,24.18048
524,1,Unit,2024,800.0,83 wyong st,keilor east,3033.0,3,2,-37.7310743,144.8662245,210011534,Greater Melbourne,15.666459999999999
525,1,House,2024,580.0,23 handley crescent,officer,3809.0,3,2,-38.0685565,145.4061199,212011546,Greater Melbourne,53.28889
526,2,Townhouse,2024,790.0,15 john street,seddon,3011.0,3,2,-37.8039384,144.889025,213031350,Greater Melbourne,7.53461
527,2,House,2024,520.0,10 popular street,rockbank,3335.0,4,2,-37.7367964,144.659929,213041359,Greater Melbourne,37.033519999999996
528,2,House,2024,630.0,7/597-605 clayton road,clarinda,3169.0,3,1,-37.9464071,145.1150182,212041309,Greater Melbourne,26.2193
529,0,Unit,2024,700.0,1708/38 rose lane,melbourne,3000.0,2,1,-37.8147019,144.9542282,206041505,Greater Melbourne,1.0766099999999998
530,2,House,2024,560.0,92 campestre drive,sunbury,3429.0,4,2,-37.6142463,144.7745685,210041540,Greater Melbourne,35.23553
531,2,House,2024,595.0,41 bellavista crescent,clayton south,3169.0,3,1,-37.9543214,145.1359507,212041310,Greater Melbourne,27.81999
532,0,Unit,2024,315.0,rooms/9 miller grove,ringwood east,3135.0,1,1,-37.8095491,145.2533506,211031267,Greater Melbourne,29.83955
533,2,House,2024,630.0,13 kinross parade,clyde north,3978.0,4,2,-38.1187424,145.345167,212031556,Greater Melbourne,55.34047
534,3,Unit,2024,660.0,5/2 elata street,oakleigh south,3167.0,3,2,-37.9112993,145.0956022,212051326,Greater Melbourne,19.721040000000002
535,2,House,2024,700.0,22 clarinda rd,moonee ponds,3039.0,3,2,-37.7627421,144.9080231,206031116,Greater Melbourne,9.81381
536,2,House,2024,730.0,1/472 mountain highway,wantirna,3152.0,4,3,-37.8447246,145.2440026,211011259,Greater Melbourne,32.381569999999996
537,2,House,2024,670.0,13 merrowland avenue,cranbourne north,3977.0,4,2,-38.0728639,145.3105771,212031559,Greater Melbourne,48.655269999999994
538,2,House,2024,650.0,48 hirata boulevard,wyndham vale,3024.0,4,3,-37.8717405,144.6174425,213051589,Greater Melbourne,37.26936
539,0,Unit,2024,300.0,1728 dandenong road,clayton,3168.0,1,1,-37.9130909,145.124179,212051567,Greater Melbourne,22.341630000000002
540,0,Unit,2024,560.0,1803/36 prospect st,box hill,3128.0,1,1,-37.8179266,145.1170396,207031163,Greater Melbourne,19.48
541,1,Unit,2024,800.0,901/649 chapel street,south yarra,3141.0,2,2,-37.8374313,144.9955745,206061515,Greater Melbourne,5.28277
542,1,Unit,2024,700.0,205/144 queens parade,fitzroy north,3068.0,2,2,-37.7906433,144.9844024,206071143,Greater Melbourne,4.42253
543,1,House,2024,550.0,18 thyridia st,mickleham,3064.0,3,2,-37.5676973,144.8886403,210051445,Greater Melbourne,40.86985
544,1,Unit,2024,350.0,4/97 new street,south kingsville,3015.0,1,1,-37.8323193,144.8667858,213021344,Greater Melbourne,11.06475
545,2,Townhouse,2024,700.0,6/14 johnson st,richmond,3121.0,2,1,-37.8116081,145.004532,206071518,Greater Melbourne,4.30586
546,2,House,2024,650.0,4 springbank way,brookfield,3338.0,4,2,-37.7019583,144.5527426,213041571,Greater Melbourne,46.60863
547,2,House,2024,625.0,55 benbow street,yarraville,3013.0,4,1,-37.8225697,144.8757973,213031352,Greater Melbourne,9.47316
548,2,Townhouse,2024,540.0,26 totem way,point cook,3030.0,3,2,-37.9063124,144.7208644,213051466,Greater Melbourne,31.509619999999998
549,1,House,2024,700.0,292 park street,south melbourne,3205.0,3,1,-37.8356516,144.9594466,206051512,Greater Melbourne,3.32074
550,0,Unit,2024,1011.0,5106/260 city road,southbank,3006.0,2,2,-37.8259372,144.9596136,206041508,Greater Melbourne,1.80468
551,0,House,2024,680.0,33 seafarer way,point cook,3030.0,4,2,-37.8959656,144.7774044,213051464,Greater Melbourne,30.08082
552,1,Unit,2024,830.0,309/408 spencer street,west melbourne,3003.0,2,2,-37.81058609999999,144.9505353,206041510,Greater Melbourne,1.72831
553,2,House,2024,580.0,8 conargo avenue,tarneit,3029.0,4,2,-37.8350443,144.6735867,213051583,Greater Melbourne,27.988259999999997
554,1,Townhouse,2024,850.0,1/35 grange road,blackburn south,3130.0,4,2,-37.8464133,145.1460419,207031162,Greater Melbourne,19.346490000000003
555,0,House,2024,720.0,2 cloverlea drive,wantirna,3152.0,4,2,-37.8550222,145.2392785,211011259,Greater Melbourne,32.52227
556,1,Unit,2024,670.0,703/34 wilson st,south yarra,3141.0,2,2,-37.8440654,144.9968021,206061516,Greater Melbourne,5.641220000000001
557,1,Unit,2024,880.0,507/2 village mews,caulfield north,3161.0,2,2,-37.8754061,145.0378352,208021177,Greater Melbourne,12.262120000000001
558,2,House,2024,550.0,3 elite way,south morang,3752.0,3,2,-37.6275353,145.070335,209041435,Greater Melbourne,26.372700000000002
559,2,Townhouse,2024,1050.0,5 sweetbox walk,malvern east,3145.0,4,3,-37.8787235,145.0628499,208041195,Greater Melbourne,14.695129999999999
560,2,House,2024,750.0,16 haynes street,highett,3190.0,4,2,-37.9495896,145.0314755,208011171,Greater Melbourne,20.60227
561,1,Unit,2024,525.0,1318/65 coventry street,south melbourne,3205.0,1,1,-37.8318763,144.9601121,206051512,Greater Melbourne,2.72452
562,1,Unit,2024,575.0,c116/15 clifton street,prahran,3181.0,2,2,-37.8512388,144.9950588,206061136,Greater Melbourne,6.397399999999999
563,3,House,2024,780.0,14 corris street,yarraville,3013.0,3,2,-37.8164193,144.8783612,213031352,Greater Melbourne,10.11062
564,2,Townhouse,2024,900.0,2/87 warrigal road,mentone,3194.0,4,2,-37.9810148,145.0713859,208031190,Greater Melbourne,28.20244
565,2,House,2024,430.0,4 dawson street,thornhill park,3335.0,3,2,-37.7201062,144.6233424,213041359,Greater Melbourne,45.18366
566,1,Townhouse,2024,630.0,321a victoria road,thornbury,3071.0,3,1,-37.7594551,145.0129242,206021112,Greater Melbourne,9.47735
567,2,House,2024,750.0,34 san lorenzo ct,heatherton,3202.0,3,2,-37.9596781,145.076409,208031191,Greater Melbourne,24.75906
568,1,Unit,2024,850.0,3612/60 kavanagh street,southbank,3006.0,2,2,-37.8242191,144.9635646,206041509,Greater Melbourne,1.8568399999999998
569,2,Unit,2024,500.0,2/709 point nepean road,mccrae,3938.0,2,1,-38.3500701,144.9257618,214021384,Greater Melbourne,88.47895
570,1,Unit,2024,420.0,8/25 wave street,frankston,3199.0,2,1,-38.1316913,145.1342976,214011371,Greater Melbourne,52.069199999999995
571,0,Unit,2024,540.0,1610/25 therry street,melbourne,3000.0,2,1,-37.8069564,144.9610982,206041504,Greater Melbourne,0.9552999999999999
572,2,House,2024,560.0,13 pyrenees street,truganina,3029.0,4,2,-37.759756,144.6905662,213041359,Greater Melbourne,33.9005
573,2,House,2024,950.0,1 saxonwood drive,vermont south,3133.0,5,3,-37.84608559999999,145.1713227,211041273,Greater Melbourne,21.717740000000003
574,1,Townhouse,2024,1100.0,2b esplanade place,port melbourne,3207.0,3,3,-37.8367799,144.9452632,206051130,Greater Melbourne,4.15817
575,2,House,2024,490.0,11 dutch avenue,manor lakes,3024.0,4,2,-37.8651197,144.5922062,213051579,Greater Melbourne,49.2775
576,2,House,2024,570.0,13 knell street,mulgrave,3170.0,3,1,-37.9290483,145.1687094,212051325,Greater Melbourne,28.3737
577,0,House,2024,450.0,130 wood street,preston,3072.0,3,1,-37.7351452,145.0220685,209021428,Greater Melbourne,12.057459999999999
578,2,House,2024,535.0,1&2/15 ashleigh avenue,frankston,3199.0,3,2,-38.1454988,145.1443737,214011372,Greater Melbourne,54.53913
579,2,House,2024,950.0,17 ferndale road,glen iris,3146.0,3,1,-37.85464959999999,145.0692423,207011150,Greater Melbourne,12.72932
580,2,House,2024,650.0,19/70 coghlan st,niddrie,3042.0,3,2,-37.740176,144.884238,210011230,Greater Melbourne,14.47322
581,1,Unit,2024,740.0,610/23 osullivan road,glen waverley,3150.0,2,2,-37.8763725,145.1641835,212051322,Greater Melbourne,24.9354
582,1,Townhouse,2024,660.0,4/63 hampton road,essendon west,3040.0,4,2,-37.752727,144.882431,210011230,Greater Melbourne,13.113040000000002
583,1,Unit,2024,1100.0,21/322 albert st,east melbourne,3002.0,2,2,-37.8098272,144.9802798,206041119,Greater Melbourne,2.01309
584,2,House,2024,600.0,19 popes road,keysborough,3173.0,4,1,-37.9822228,145.1872733,212041565,Greater Melbourne,34.37075
585,0,Unit,2024,360.0,18/117-119 ballarat road,footscray,3011.0,1,1,-37.7931477,144.8954491,213031348,Greater Melbourne,8.18808
586,0,House,2024,745.0,3 king street,st kilda east,3183.0,2,1,-37.8637212,144.992843,206051134,Greater Melbourne,7.58819
587,0,Studio,2024,330.0,21 newton street,reservoir,3073.0,1,1,-37.7319037,145.026861,209021525,Greater Melbourne,12.84736
588,1,Unit,2024,420.0,1/10 tarene street,dandenong,3175.0,2,1,-38.0017365,145.2066479,212041564,Greater Melbourne,37.01572
589,1,Townhouse,2024,560.0,1/5 daley street,glenroy,3046.0,2,2,-37.6982356,144.9364693,210031535,Greater Melbourne,15.746139999999999
590,0,Unit,2024,550.0,45 dudley street,west melbourne,3003.0,1,1,-37.8099795,144.9509744,206041510,Greater Melbourne,1.71159
591,2,House,2024,660.0,210 boundary road,pascoe vale,3044.0,3,1,-37.7167344,144.9415466,210031538,Greater Melbourne,12.12118
592,2,House,2024,1600.0,49 regent street,brighton east,3187.0,4,3,-37.9236252,145.010477,208011170,Greater Melbourne,13.79055
593,2,House,2024,550.0,8 sumersett avenue,oakleigh south,3167.0,2,1,-37.914491,145.0868635,212051326,Greater Melbourne,19.5827
594,0,Unit,2024,550.0,403w/888 collins street,docklands,3008.0,1,1,-37.82063100000001,144.9425733,206041118,Greater Melbourne,2.26348
595,4,House,2024,660.0,8 leonie avenue,mount waverley,3149.0,3,1,-37.8851464,145.1210569,212051324,Greater Melbourne,19.079669999999997
596,1,Unit,2024,800.0,5607/70 southbank boulevard,southbank,3006.0,2,2,-37.8231578,144.9639532,206041509,Greater Melbourne,1.982
597,1,House,2024,450.0,1080 woodend/ romsey road,hesket,3442.0,3,1,-37.349217,144.6336075,210021235,Greater Melbourne,77.34877
598,2,House,2024,1200.0,14 juniper ave,glen waverley,3150.0,4,3,-37.88936570000001,145.1593061,212051322,Greater Melbourne,23.1427
599,2,House,2024,550.0,10 poole street,deer park,3023.0,3,1,-37.773594,144.7727945,213011569,Greater Melbourne,24.71957
600,1,Unit,2024,350.0,7/14 salisbury street,glenroy,3046.0,1,1,-37.7012339,144.9195335,210031535,Greater Melbourne,14.143229999999999
601,1,House,2024,520.0,20 windsong way,point cook,3030.0,3,2,-37.8940429,144.7514206,213051580,Greater Melbourne,26.098509999999997
602,2,House,2024,455.0,7 spadefoot place,strathtulloh,3338.0,4,2,-37.7242041,144.6061467,213041572,Greater Melbourne,46.400769999999994
603,0,House,2024,260.0,200 elgar road,box hill south,3128.0,1,2,-37.836876,145.1118284,207031163,Greater Melbourne,17.08957
604,2,House,2024,540.0,12 gosford road,wyndham vale,3024.0,4,2,-37.8937035,144.613065,213051590,Greater Melbourne,42.28825
605,2,Unit,2024,600.0,8/2-10 teague avenue,mentone,3194.0,2,2,-37.9789793,145.0634445,208031190,Greater Melbourne,26.604950000000002
606,0,Unit,2024,680.0,4711c/633 little lonsdale street,melbourne,3000.0,1,1,-37.8138247,144.9531677,206041505,Greater Melbourne,1.1758199999999999
607,2,House,2024,470.0,23 amphitheatre street,eynesbury,3338.0,4,2,-37.7928512,144.5431884,213041573,Greater Melbourne,66.61344
608,2,Unit,2024,720.0,611/1 ascot vale road,flemington,3031.0,2,2,-37.7867825,144.9213168,206031115,Greater Melbourne,5.36823
609,2,House,2024,480.0,13 snipe drive,strathtulloh,3338.0,4,2,-37.722415,144.6065537,213041572,Greater Melbourne,46.20892
610,1,Unit,2024,480.0,108a/640 swanston street,carlton,3053.0,1,1,-37.80167,144.9640806,206041117,Greater Melbourne,1.8427
611,2,House,2024,530.0,3 glideriter road,donnybrook,3064.0,4,2,-37.544723,144.9602436,209041225,Greater Melbourne,38.38097
612,1,Townhouse,2024,600.0,20c park street,mordialloc,3195.0,2,2,-38.009134,145.0898864,208031193,Greater Melbourne,34.368559999999995
613,1,Unit,2024,800.0,1805/8 downie st,melbourne,3000.0,3,2,-37.8203424,144.9559928,206041505,Greater Melbourne,1.2966900000000001
614,1,House,2024,485.0,3/6 west court,lalor,3075.0,2,1,-37.6700084,145.0239144,209041529,Greater Melbourne,18.68921
615,0,Unit,2024,430.0,7/23 robe street,st kilda,3182.0,1,1,-37.8649078,144.9780209,206051514,Greater Melbourne,7.418810000000001
616,1,Unit,2024,725.0,6/4 rockley road,south yarra,3141.0,2,1,-37.8388683,144.9998447,206061515,Greater Melbourne,5.4013100000000005
617,3,House,2024,570.0,11 loris street,springvale south,3172.0,3,1,-37.9700634,145.1518684,212041318,Greater Melbourne,36.53763
618,3,House,2024,550.0,28 melaleuca drive,thomastown,3074.0,3,1,-37.6754849,145.0032366,209041223,Greater Melbourne,18.59357
619,2,Townhouse,2024,1250.0,1/287 alma road,caulfield north,3161.0,3,3,-37.8643029,145.0130907,208021177,Greater Melbourne,9.303889999999999
620,1,Unit,2024,780.0,45/36 drummond street,carlton,3053.0,3,1,-37.8060561,144.9677741,206041117,Greater Melbourne,1.41503
621,1,Unit,2024,370.0,10b boonah street,springvale,3171.0,1,1,-37.9564288,145.1497758,212041317,Greater Melbourne,28.83075
622,2,House,2024,2000.0,69 esplanade east,port melbourne,3207.0,2,2,-37.8430107,144.9426361,206051130,Greater Melbourne,5.06945
623,1,Unit,2024,440.0,508/1228 nepean highway,cheltenham,3192.0,1,1,-37.9658058,145.0573974,208031188,Greater Melbourne,25.28148
624,1,House,2024,995.0,70 station street,carlton,3053.0,3,1,-37.7959996,144.9744516,206041117,Greater Melbourne,3.0306599999999997
625,2,Townhouse,2024,500.0,24 millport drive,burnside heights,3023.0,3,2,-37.7349869,144.7523382,213041462,Greater Melbourne,30.363349999999997
626,0,Unit,2024,520.0,95/183 city road,southbank,3006.0,1,1,-37.8247935,144.9618171,206041509,Greater Melbourne,1.94647
627,2,Townhouse,2024,1450.0,17b billson street,brighton east,3187.0,4,3,-37.9180051,145.0142794,208011170,Greater Melbourne,16.38636
628,2,Townhouse,2024,550.0,9 travertine loop,berwick,3806.0,3,2,-38.0489954,145.3188052,212021554,Greater Melbourne,48.06453
629,0,Unit,2024,410.0,23a military road,avondale heights,3034.0,4,1,-37.7695617,144.8649106,210011533,Greater Melbourne,12.87918
630,2,Townhouse,2024,720.0,53b sydney road,bayswater,3153.0,4,2,-37.8479988,145.2494943,211011251,Greater Melbourne,33.55882
631,1,Unit,2024,600.0,7/101 woodland street,essendon,3040.0,2,1,-37.742587,144.9177506,206031502,Greater Melbourne,10.805909999999999
632,2,House,2024,560.0,61 pinnacle drive,pakenham,3810.0,4,2,-38.0839375,145.451479,212011552,Greater Melbourne,58.033199999999994
633,1,Unit,2024,560.0,9/19 cardigan street,st kilda east,3183.0,2,1,-37.8655728,145.0017697,206051134,Greater Melbourne,8.64377
634,2,House,2024,560.0,25 thornbury way,williams landing,3027.0,4,2,-37.8637857,144.73701,213051363,Greater Melbourne,25.283150000000003
635,0,Unit,2024,335.0,386 burwood highway,burwood,3125.0,1,1,-37.8522402,145.1305566,207031165,Greater Melbourne,17.23563
636,2,House,2024,450.0,12 lauraville avenue,werribee,3030.0,3,1,-37.9096795,144.6725453,213051368,Greater Melbourne,32.07494
637,2,House,2024,380.0,5 fisher place,kurunjang,3337.0,3,1,-37.6673364,144.5966068,213041576,Greater Melbourne,44.31888
638,0,Unit,2024,580.0,1205/570 lygon street,carlton,3053.0,2,1,-37.7935594,144.9690564,206041117,Greater Melbourne,3.0436799999999997
639,0,Unit,2024,325.0,903 dandenong road,malvern east,3145.0,1,1,-37.8766351,145.0461922,208041195,Greater Melbourne,13.65898
640,2,House,2024,600.0,33 morphetville street,clyde north,3978.0,4,2,-38.1169415,145.3264243,212031557,Greater Melbourne,54.70707
641,2,Townhouse,2024,995.0,3a white street,beaumaris,3193.0,3,3,-37.989345,145.033221,208011168,Greater Melbourne,25.45479
642,2,House,2024,600.0,25 mighty road,sunbury,3429.0,4,2,-37.5779304,144.7625667,210041240,Greater Melbourne,38.04002
643,2,Unit,2024,720.0,308/1 moreland st,footscray,3011.0,3,2,-37.8016197,144.9081982,213031348,Greater Melbourne,6.76009
644,2,House,2024,2400.0,18 goodall street,hawthorn,3122.0,5,2,-37.8265698,145.0427874,207011520,Greater Melbourne,9.22225
645,2,House,2024,460.0,1 montview place,brookfield,3338.0,4,2,-37.69210959999999,144.5518942,213041571,Greater Melbourne,46.091370000000005
646,2,House,2024,410.0,2 diggers rest-coimadai road,diggers rest,3427.0,2,1,-37.62705760000001,144.7191732,210041539,Greater Melbourne,33.86064
647,1,Unit,2024,700.0,2b2b1c/180 reynolds road,doncaster east,3109.0,2,2,-37.7638776,145.1678406,207021424,Greater Melbourne,22.18449
648,2,House,2024,630.0,3 farleigh drive,tarneit,3029.0,4,2,-37.836373,144.6350549,213051582,Greater Melbourne,31.98825
649,1,Unit,2024,495.0,7/19 redan street,st kilda,3182.0,2,1,-37.8602313,144.9897714,206051513,Greater Melbourne,6.43559
650,0,Unit,2024,460.0,1309/555 flinders street,melbourne,3000.0,1,1,-37.8209711,144.9564827,206041505,Greater Melbourne,1.69586
651,0,Unit,2024,450.0,4/229 dow street,port melbourne,3207.0,1,1,-37.8387729,144.9436721,206051130,Greater Melbourne,4.4032
652,2,House,2024,600.0,25 seafarer way,point cook,3030.0,4,2,-37.895975,144.7779788,213051464,Greater Melbourne,30.131240000000002
653,2,Townhouse,2024,1350.0,42a tudor street,bentleigh east,3165.0,4,4,-37.9188222,145.0785752,208021426,Greater Melbourne,20.374830000000003
654,1,Unit,2024,480.0,5/11 williams street,frankston south,3199.0,2,1,-38.1501717,145.1175014,214011371,Greater Melbourne,54.24083
655,3,House,2024,570.0,2/195 elder street,greensborough,3088.0,2,2,-37.7164173,145.1023947,209011197,Greater Melbourne,21.405810000000002
656,0,Unit,2024,430.0,5/39 eildon road,st kilda,3182.0,1,1,-37.8613521,144.9781909,206051514,Greater Melbourne,6.89213
657,1,Townhouse,2024,500.0,4/750 elizabeth drive,sunbury,3429.0,3,2,-37.5940936,144.7088778,210041540,Greater Melbourne,37.89989
658,1,Townhouse,2024,630.0,4/441 warrigal road,burwood,3125.0,3,1,-37.8601261,145.0941296,212051319,Greater Melbourne,15.12084
659,0,Unit,2024,315.0,517/2 eastern place,hawthorn east,3123.0,1,1,-37.8233469,145.0455415,207011152,Greater Melbourne,9.73692
660,1,Unit,2024,800.0,1905e/888 collins street,docklands,3008.0,2,2,-37.82063100000001,144.9425733,206041118,Greater Melbourne,2.26348
661,1,Unit,2024,550.0,611 victoria street,abbotsford,3067.0,1,1,-37.8110844,145.0076135,206071139,Greater Melbourne,4.40098
662,2,Unit,2024,435.0,3/43 holts lane,darley,3340.0,2,1,-37.6625807,144.436355,213041353,Greater Melbourne,62.348879999999994
663,1,Unit,2024,370.0,14/558 moreland road,brunswick,3056.0,1,1,-37.755438,144.9641203,206011497,Greater Melbourne,6.67563
664,2,Townhouse,2024,1090.0,1/287 rathmines street,thornbury,3071.0,4,2,-37.7642631,145.0184958,206021112,Greater Melbourne,10.004809999999999
665,0,House,2024,485.0,3 tivoli street,point cook,3030.0,3,1,-37.8813087,144.7465029,213051580,Greater Melbourne,24.25669
666,2,House,2024,630.0,18 leahy circuit,gisborne,3437.0,4,1,-37.5105594,144.6102416,210021232,Greater Melbourne,52.27293
667,1,House,2024,675.0,61 tarrengower street,yarraville,3013.0,3,1,-37.8177171,144.8898039,213031352,Greater Melbourne,8.29701
668,1,Townhouse,2024,550.0,2/128 widford street,glenroy,3046.0,2,2,-37.6954662,144.9254272,210031535,Greater Melbourne,15.108049999999999
669,1,Unit,2024,420.0,9/280 maroondah highway,ringwood,3134.0,1,1,-37.8099481,145.239467,211031267,Greater Melbourne,28.55411
670,2,House,2024,580.0,18 memphis drive,truganina,3029.0,4,2,-37.8418758,144.7267392,213051588,Greater Melbourne,23.87508
671,2,House,2024,1800.0,182 dendy street,brighton east,3187.0,4,2,-37.9218741,145.0121777,208011170,Greater Melbourne,17.49712
672,0,House,2024,670.0,13 therese avenue,mount waverley,3149.0,3,1,-37.8929198,145.1161498,212051324,Greater Melbourne,21.49663
673,1,House,2024,425.0,1/704 high st,melton west,3337.0,3,2,-37.6856877,144.5420532,213041358,Greater Melbourne,46.54637
674,2,House,2024,950.0,36 white street,fairfield,3078.0,3,2,-37.7732491,145.023067,206021110,Greater Melbourne,10.49696
675,1,Unit,2024,580.0,9/151 la trobe street,melbourne,3000.0,2,1,-37.8089812,144.9674219,206041503,Greater Melbourne,1.28867
676,0,Unit,2024,680.0,15-85 gladstone st,south melbourne,3205.0,1,1,-37.8295123,144.9509871,206051511,Greater Melbourne,3.13323
677,2,House,2024,550.0,13 bremer street,clyde north,3978.0,3,2,-38.0998206,145.329397,212031557,Greater Melbourne,53.91643
678,0,Unit,2024,700.0,j414/10 caulfield boulevard,caulfield north,3161.0,0,1,-37.8754061,145.0378352,208021177,Greater Melbourne,12.262120000000001
679,2,House,2024,775.0,24 diamond street,niddrie,3042.0,3,2,-37.7478868,144.8897485,210011230,Greater Melbourne,12.94645
680,1,Unit,2024,500.0,307/771 toorak road,hawthorn east,3123.0,1,1,-37.8450397,145.043,207011152,Greater Melbourne,9.48458
681,0,Unit,2024,500.0,1514/100 harbour esplanade,docklands,3008.0,1,1,-37.81837549999999,144.9468886,206041118,Greater Melbourne,2.0908800000000003
682,1,Unit,2024,550.0,3/12 highlands avenue,airport west,3042.0,2,1,-37.7219207,144.8815309,210011226,Greater Melbourne,15.44214
683,1,Unit,2024,700.0,1/378-390 st georges road,fitzroy north,3068.0,2,2,-37.7784848,144.9882531,206071143,Greater Melbourne,5.34642
684,2,House,2024,620.0,5/27 vinter avenue,croydon,3136.0,3,2,-37.8049163,145.2755425,211031450,Greater Melbourne,32.32629
685,2,House,2024,650.0,50 lancewood road,manor lakes,3024.0,4,2,-37.8713809,144.5936098,213051579,Greater Melbourne,48.77143
686,2,House,2024,550.0,16 ballanrong road,bonnie brook,3335.0,4,2,-37.7093062,144.683291,213041574,Greater Melbourne,37.29963
687,2,House,2024,600.0,14 mallard mews,south morang,3752.0,4,2,-37.6395386,145.0864121,209041436,Greater Melbourne,26.38469
688,0,House,2024,650.0,60 coppin road,sorrento,3943.0,3,1,-38.3431524,144.7390386,214021383,Greater Melbourne,46.465559999999996
689,3,House,2024,620.0,54 fawkner crescent,keilor east,3033.0,3,2,-37.7477613,144.8652092,210011534,Greater Melbourne,14.91704
690,1,Unit,2024,650.0,2/12 mitchell street,mentone,3194.0,2,1,-37.9844006,145.0697969,208031190,Greater Melbourne,27.96807
691,1,Unit,2024,395.0,15/11 chapel street,st kilda,3182.0,1,1,-37.8582801,144.9919444,206051513,Greater Melbourne,6.60603
692,1,House,2024,530.0,3 gidgee court,wantirna south,3152.0,3,1,-37.8579647,145.2522713,211011260,Greater Melbourne,33.62107
693,2,House,2024,500.0,4 elaine court,cranbourne,3977.0,3,1,-38.1104108,145.2673785,212031300,Greater Melbourne,52.22
694,2,Unit,2024,460.0,3/9 barnato grove,armadale,3143.0,2,1,-37.85711120000001,145.0128903,206061135,Greater Melbourne,8.43617
695,2,House,2024,500.0,96 ribblesdale avenue,wyndham vale,3024.0,4,2,-37.8946966,144.6088088,213051590,Greater Melbourne,45.22529
696,1,Unit,2024,650.0,201/51 napoleon street,collingwood,3066.0,2,1,-37.8018123,144.9866863,206071141,Greater Melbourne,3.30378
697,2,House,2024,570.0,1 clelland way,clyde north,3978.0,4,2,-38.1116851,145.3694518,212031556,Greater Melbourne,56.6067
698,0,Unit,2024,788.0,206/150 dudley street,west melbourne,3003.0,1,1,-37.8097557,144.9503828,206041510,Greater Melbourne,1.75053
699,1,Unit,2024,625.0,201/85 nicholson street,brunswick east,3057.0,2,2,-37.7746422,144.9785947,206011106,Greater Melbourne,5.45378
700,1,House,2024,500.0,16/51c orinoco chase,werribee,3030.0,3,2,-37.908116,144.6059077,213051468,Greater Melbourne,43.85404
701,0,Unit,2024,675.0,2704/483 swanston street,melbourne,3000.0,2,1,-37.8071377,144.9623278,206041504,Greater Melbourne,1.27245
702,2,Unit,2024,750.0,103/22 findon street,hawthorn,3122.0,3,2,-37.8129183,145.0204503,207011519,Greater Melbourne,5.57412
703,1,Townhouse,2024,550.0,4/422 station st,bonbeach,3196.0,2,2,-38.0642973,145.1205174,208031186,Greater Melbourne,49.490610000000004
704,2,House,2024,580.0,20 devine drive,pakenham,3810.0,3,2,-38.0623999,145.4928839,212011549,Greater Melbourne,64.23002
705,0,Unit,2024,650.0,35/2 collins street,melbourne,3000.0,1,1,-37.8130698,144.9735761,206041503,Greater Melbourne,1.35202
706,5,House,2024,495.0,36 laurina crescent,frankston north,3200.0,3,1,-38.1159904,145.1552729,214011372,Greater Melbourne,49.9051
707,0,Unit,2024,660.0,2001/9 power street,southbank,3006.0,2,1,-37.8230624,144.9614182,206041508,Greater Melbourne,1.8286900000000001
708,0,Unit,2024,360.0,3 holmes street,brunswick east,3057.0,1,1,-37.761424,144.973844,206011106,Greater Melbourne,6.29884
709,2,House,2024,650.0,30 maribyrnong road,moonee ponds,3039.0,2,1,-37.772558,144.925426,206031116,Greater Melbourne,7.379449999999999
710,2,House,2024,490.0,20 texel road,mambourin,3024.0,4,2,-37.89120680000001,144.5870992,213051468,Greater Melbourne,46.917739999999995
711,2,Townhouse,2024,620.0,1/13 orgill street,dandenong,3175.0,4,1,-37.992971,145.2245781,212041563,Greater Melbourne,35.04821
712,0,Unit,2024,410.0,6/164-168 arden street,north melbourne,3051.0,1,1,-37.800354,144.9462448,206041506,Greater Melbourne,2.94465
713,0,Unit,2024,550.0,409/20 peel street,collingwood,3066.0,1,1,-37.8049943,144.9849188,206071141,Greater Melbourne,2.80456
714,1,Unit,2024,365.0,2/6-12 connelly street,flemington,3031.0,2,1,-37.783415,144.923442,206031115,Greater Melbourne,5.9848
715,1,Unit,2024,465.0,11/647 toorak road,toorak,3142.0,1,1,-37.843101,145.027238,206061138,Greater Melbourne,8.6425
716,1,Unit,2024,600.0,57/352 canterbury road,st kilda,3182.0,1,1,-37.8590101,144.9767581,206051514,Greater Melbourne,6.769819999999999
717,0,Unit,2024,480.0,707/555 flinders street,melbourne,3000.0,1,1,-37.8209711,144.9564827,206041505,Greater Melbourne,1.69586
718,0,Unit,2024,440.0,2/1 rae court,prahran,3181.0,2,1,-37.8566558,145.0024339,206061136,Greater Melbourne,7.603899999999999
719,1,Unit,2024,510.0,2/28 carlisle street,st kilda,3182.0,2,1,-37.8670438,144.9816574,206051513,Greater Melbourne,7.64118
720,2,House,2024,850.0,6 saxonwood drive,vermont south,3133.0,4,2,-37.8466947,145.1716696,211041273,Greater Melbourne,21.78224
721,1,Townhouse,2024,1200.0,109b victor road,bentleigh east,3165.0,4,3,-37.9243753,145.079167,208021427,Greater Melbourne,20.819599999999998
722,0,Unit,2024,450.0,102/201 high street,prahran,3181.0,1,1,-37.8518224,144.9948405,206061136,Greater Melbourne,6.46411
723,0,Unit,2024,550.0,702/141-149 la trobe street,melbourne,3000.0,1,1,-37.8087593,144.9674745,206041503,Greater Melbourne,1.02949
724,1,Unit,2024,820.0,2/49 kensington road,south yarra,3141.0,2,1,-37.835932,145.0015118,206061515,Greater Melbourne,5.878979999999999
725,2,House,2024,520.0,32 blenril avenue,tarneit,3029.0,3,2,-37.8214999,144.6649274,213051584,Greater Melbourne,33.580400000000004
726,2,Townhouse,2024,600.0,14/296-298 somerville road,kingsville,3012.0,3,1,-37.8116542,144.8741382,213031350,Greater Melbourne,10.871030000000001
727,3,House,2024,725.0,7 providence avenue,wollert,3750.0,5,3,-37.59918529999999,144.9857716,209041437,Greater Melbourne,31.71016
728,1,Unit,2024,650.0,708/16 wardens walk,coburg,3058.0,2,2,-37.7385722,144.968578,206011497,Greater Melbourne,9.65921
729,1,Unit,2024,620.0,102/127 nicholson street,brunswick east,3057.0,2,1,-37.7718453,144.9792706,206011106,Greater Melbourne,5.44542
730,2,House,2024,540.0,32 nile drive,truganina,3029.0,3,2,-37.76707,144.6942541,213041359,Greater Melbourne,34.62132
731,2,Townhouse,2024,660.0,1/19 inglis avenue,frankston,3199.0,3,2,-38.130507,145.1265761,214011371,Greater Melbourne,52.042550000000006
732,1,Unit,2024,475.0,10/9 ascot street,malvern,3144.0,1,1,-37.8547958,145.0354109,208041194,Greater Melbourne,10.569030000000001
733,1,Unit,2024,475.0,9/45 robe st,st kilda,3182.0,2,1,-37.8641818,144.9792799,206051514,Greater Melbourne,7.2817799999999995
734,2,House,2024,670.0,5/4-6 zealandia road east,croydon north,3136.0,3,2,-37.7786457,145.2899867,211031265,Greater Melbourne,34.35617
735,2,House,2024,750.0,10 spicer street,beaumaris,3193.0,3,2,-37.9783465,145.0489607,208011168,Greater Melbourne,25.74108
736,2,Townhouse,2024,700.0,3a & 3b teal crescent,lalor,3075.0,4,2,-37.6622956,145.0166161,209041530,Greater Melbourne,18.77303
737,0,Unit,2024,630.0,3605/260 spencer street,melbourne,3000.0,1,1,-37.81463249999999,144.9526152,206041505,Greater Melbourne,1.21723
738,1,House,2024,600.0,29 yarra road,croydon,3136.0,3,2,-37.784048,145.2742747,211031451,Greater Melbourne,33.32929
739,2,House,2024,500.0,19 minindee road,wyndham vale,3024.0,4,2,-37.8753568,144.6009065,213051579,Greater Melbourne,47.65236
740,2,House,2024,550.0,111 henry road,pakenham,3810.0,3,2,-38.0795377,145.4491728,212011552,Greater Melbourne,57.201389999999996
741,0,Unit,2024,500.0,1605/80 abeckett street,melbourne,3000.0,1,1,-37.8089991,144.9610792,206041504,Greater Melbourne,0.62475
742,2,Unit,2024,475.0,2/22 jacqueline place,pakenham,3810.0,3,1,-38.0699823,145.4800596,212011549,Greater Melbourne,61.657059999999994
743,0,Studio,2024,480.0,405/181 abeckett street,melbourne,3000.0,1,1,-37.8101564,144.9581958,206041504,Greater Melbourne,0.86724
744,3,House,2024,470.0,12 newhaven road,craigieburn,3064.0,3,1,-37.6124771,144.9362133,210051443,Greater Melbourne,26.347369999999998
745,2,House,2024,430.0,38 ash grove,springvale,3171.0,3,2,-37.9549005,145.1567498,212041317,Greater Melbourne,36.12523
746,0,House,2024,1015.0,388 high street,windsor,3181.0,3,1,-37.853109,145.001364,206061136,Greater Melbourne,7.26196
747,2,House,2024,455.0,41 adelong way,bacchus marsh,3340.0,3,2,-37.6781849,144.4183259,213041353,Greater Melbourne,61.4953
748,2,Unit,2024,1200.0,1108/241 harbour esplanade,docklands,3008.0,3,3,-37.8132032,144.9429762,206041118,Greater Melbourne,2.51349
749,2,House,2024,530.0,31 romulea circuit,diggers rest,3427.0,4,2,-37.6221921,144.6948058,210041539,Greater Melbourne,37.08907
750,2,Townhouse,2024,700.0,50 collier crescent,brunswick west,3055.0,3,1,-37.7717016,144.9491807,206011107,Greater Melbourne,5.77202
751,1,House,2024,850.0,11 hume street,armadale,3143.0,3,2,-37.8569226,145.0213117,206061135,Greater Melbourne,9.003350000000001
752,1,Unit,2024,540.0,4/53-55 locksley road,ivanhoe,3079.0,2,1,-37.7700233,145.0481784,209011200,Greater Melbourne,14.05786
753,2,Townhouse,2024,895.0,3/2 bayview road,beaumaris,3193.0,3,2,-37.97768689999999,145.0404336,208011168,Greater Melbourne,24.94044
754,1,House,2024,435.0,8 vermont road,wyndham vale,3024.0,3,2,-37.852034,144.596387,213051589,Greater Melbourne,40.461589999999994
755,3,House,2024,1185.0,18 cook street,ivanhoe,3079.0,4,3,-37.7597455,145.0331031,209011200,Greater Melbourne,12.8284
756,2,House,2024,600.0,32 mosley crescent,truganina,3029.0,4,2,-37.8286671,144.713029,213051586,Greater Melbourne,25.67907
757,2,Townhouse,2024,900.0,3/41 rotherwood rd,ivanhoe east,3079.0,3,2,-37.7691625,145.0526877,209011201,Greater Melbourne,13.838299999999998
758,2,House,2024,685.0,30 glenfern avenue,upwey,3158.0,4,2,-37.9148881,145.3327444,211051284,Greater Melbourne,44.765089999999994
759,0,House,2024,300.0,room 8/2 alba street,frankston north,3200.0,1,1,-38.1221567,145.1612579,214011372,Greater Melbourne,50.72734
760,1,Unit,2024,450.0,410/5 blanch street,preston,3072.0,1,1,-37.7453431,144.9995301,209021428,Greater Melbourne,9.46608
761,2,Unit,2024,745.0,2201/3 young st,box hill,3128.0,3,2,-37.8174697,145.1166984,207031163,Greater Melbourne,19.49159
762,2,House,2024,1050.0,15 cambridge close,croydon hills,3136.0,5,2,-37.78014410000001,145.2577991,211031265,Greater Melbourne,32.618970000000004
763,2,House,2024,450.0,24 stonneyburn rd,thornhill park,3335.0,4,2,-37.7242178,144.6217195,213041359,Greater Melbourne,45.66091
764,2,House,2024,580.0,62 mcewan drive,cranbourne east,3977.0,4,2,-38.1232669,145.3038305,212031558,Greater Melbourne,56.020160000000004
765,1,Unit,2024,400.0,2/5 gordon street,footscray,3011.0,2,1,-37.787959,144.8903541,213031348,Greater Melbourne,8.848930000000001
766,1,House,2024,520.0,5 hamilton close,kilsyth,3137.0,3,1,-37.81078309999999,145.3258891,211051277,Greater Melbourne,37.680620000000005
767,1,Unit,2024,600.0,1009/80 clarendon street,southbank,3006.0,1,1,-37.8270841,144.9575638,206041508,Greater Melbourne,2.14367
768,1,Unit,2024,650.0,201/14 david street,richmond,3121.0,2,1,-37.8154413,145.0111408,206071518,Greater Melbourne,5.2094499999999995
769,6,House,2024,5000.0,28a/300 point cook road,point cook,3030.0,2,2,-37.8953338,144.7526675,213051580,Greater Melbourne,26.74102
770,2,House,2024,450.0,137 heaths road,hoppers crossing,3029.0,3,1,-37.8789752,144.693152,213051362,Greater Melbourne,28.66231
771,2,House,2024,725.0,35 kookaburra street,altona,3018.0,3,1,-37.8708546,144.8056551,213021341,Greater Melbourne,20.38798
772,0,Terrace,2024,550.0,64 sackville st,collingwood,3066.0,2,1,-37.79836,144.9871844,206071141,Greater Melbourne,3.6604699999999997
773,1,House,2024,1800.0,198 the avenue,parkville,3052.0,3,2,-37.7829335,144.9575056,206041124,Greater Melbourne,3.78601
774,1,Unit,2024,550.0,3/18 tennyson street,malvern east,3145.0,2,1,-37.8751595,145.0512411,208041195,Greater Melbourne,13.38924
775,0,House,2024,270.0,36 flannery avenue,bundoora,3083.0,1,1,-37.7030641,145.0594803,209011196,Greater Melbourne,16.9466
776,1,Townhouse,2024,560.0,2/79 brown street,heidelberg,3084.0,3,1,-37.7525308,145.0670763,209011198,Greater Melbourne,15.22735
777,1,House,2024,530.0,19 ross street,coburg,3058.0,2,1,-37.7384075,144.9658444,206011497,Greater Melbourne,9.935559999999999
778,1,Unit,2024,510.0,4/6 melbourne street,murrumbeena,3163.0,2,1,-37.8890347,145.0687961,208021181,Greater Melbourne,15.34
779,1,Unit,2024,520.0,1205/7 aspen street,moonee ponds,3039.0,1,1,-37.7655711,144.9217895,206031116,Greater Melbourne,8.26408
