,parking,property_type,date_available,weekly_cost,address,suburb,postcode,beds,baths,latitude,longitude,SA2_CODE21,GCC_NAME21,dist_to_city
0,0,House,2024,440.0,58 cox street,port fairy,3284.0,2,1,-38.3848557,142.2327149,217041478,Rest of Vic.,28.3613
1,1,House,2024,480.0,6 wattlebird close,seaspray,3851.0,3,2,-38.3611262,147.1804289,205051100,Rest of Vic.,75.26805
2,2,House,2024,560.0,58 leicester st,mildura,3500.0,3,2,-34.1690996,142.1353507,215021469,Rest of Vic.,4.549060000000001
3,1,House,2024,450.0,10 francis elliot court,bundalong,3730.0,3,1,-36.0381136,146.1739179,216021412,Rest of Vic.,74.52911
4,2,House,2024,380.0,12 dundas road,maryborough,3465.0,3,1,-37.0394071,143.738589,201031016,Rest of Vic.,67.88624
5,1,House,2024,300.0,27 sterling street,dunkeld,3294.0,2,1,-37.649925,142.3418303,217011423,Rest of Vic.,97.18157000000001
6,2,Townhouse,2024,650.0,235b roslyn road,highton,3216.0,3,2,-38.1731978,144.3226532,203021042,Rest of Vic.,5.54444
7,2,House,2024,470.0,4 thorburn street,bell park,3215.0,3,1,-38.1122556,144.3424322,203021047,Rest of Vic.,5.98883
8,0,Townhouse,2024,490.0,2/11 numurkah road,shepparton,3630.0,3,2,-36.3659671,145.4027397,216031416,Rest of Vic.,1.94953
9,1,House,2024,340.0,4/92 lawrence street,wodonga,3690.0,2,1,-36.1251647,146.8965104,204031492,Rest of Vic.,1.2098499999999999
10,1,Unit,2024,360.0,2/7 bieske road,grovedale,3216.0,1,1,-38.2054373,144.3360558,203021487,Rest of Vic.,7.79104
11,2,House,2024,395.0,8 ritchie road,churchill,3842.0,3,1,-38.3084134,146.4118235,205041094,Rest of Vic.,21.4058
12,2,House,2024,700.0,5 malmsbury crescent,kialla,3631.0,4,2,-36.4332458,145.404295,216031593,Rest of Vic.,6.95367
13,2,House,2024,560.0,26 angophora court,lucknow,3875.0,4,2,-37.8041609,147.6512699,205021081,Rest of Vic.,121.45562
14,2,House,2024,435.0,14 burtonwood court,neerim south,3831.0,2,1,-38.0106585,145.9496282,205011077,Rest of Vic.,77.2056
15,2,Townhouse,2024,650.0,28 wurrak crescent,torquay,3228.0,3,2,-38.32158769999999,144.3080946,203031053,Rest of Vic.,21.61652
16,2,House,2024,510.0,1538 wangaratta-yarrawonga rd,killawarra,3678.0,3,1,-36.2428826,146.2468445,204021067,Rest of Vic.,83.58841000000001
17,1,House,2024,380.0,519 bell street,redan,3350.0,3,1,-37.57674859999999,143.8361878,201011484,Rest of Vic.,3.40352
18,1,House,2024,490.0,1 taminga mews,st albans park,3219.0,3,2,-38.1838212,144.3918653,203021045,Rest of Vic.,5.50491
19,1,House,2024,440.0,14 royal avenue,kennington,3550.0,2,1,-36.76086129999999,144.291515,202011020,Rest of Vic.,1.25448
20,0,Townhouse,2024,450.0,196 timor street,warrnambool,3280.0,5,1,-38.3846797,142.4809662,217041480,Rest of Vic.,0.35552999999999996
21,0,Unit,2024,310.0,5/48 king street,ararat,3377.0,2,1,-37.2828022,142.9372572,215011386,Rest of Vic.,92.88013000000001
22,0,Unit,2024,550.0,unit 4/2 gawler street,portland,3305.0,2,1,-38.3503554,141.6058274,217011422,Rest of Vic.,100.25883
23,1,Unit,2024,340.0,6/20 hopetoun road,warrnambool,3280.0,2,1,-38.3685552,142.4738103,217041479,Rest of Vic.,2.1060700000000003
24,1,Unit,2024,295.0,4/131 billabong road,nichols point,3501.0,2,1,-34.2033054,142.2275351,215021395,Rest of Vic.,9.872860000000001
25,2,House,2024,510.0,24 hardisty street,wangaratta,3677.0,3,1,-36.3690362,146.3258143,204021066,Rest of Vic.,70.37162
26,0,Townhouse,2024,550.0,3 carlassare court myrtleford,myrtleford,3737.0,4,1,-36.5826745,146.7504404,204031071,Rest of Vic.,69.71783
27,2,House,2024,430.0,13 bluegum court,corio,3214.0,3,1,-38.0784886,144.3408547,203021486,Rest of Vic.,11.61941
28,2,House,2024,450.0,23 mackie close,hamlyn heights,3215.0,2,1,-38.1094932,144.322102,203021040,Rest of Vic.,6.8689
29,2,House,2024,540.0,43 chilula st,huntly,3551.0,4,2,-36.6566682,144.3472436,202011025,Rest of Vic.,13.66667
30,2,House,2024,530.0,27 irontree close,kangaroo flat,3555.0,3,2,-36.8029387,144.2314012,202011022,Rest of Vic.,8.85234
31,2,House,2024,320.0,51 amaroo dr,churchill,3842.0,3,1,-38.3195566,146.4207465,205041094,Rest of Vic.,21.38917
32,2,House,2024,600.0,90 crole drive,warragul,3820.0,4,2,-38.1462179,145.9124776,205011079,Rest of Vic.,63.42416
33,3,House,2024,500.0,19 blackwood court,enfield,3352.0,4,2,-37.7274049,143.8050776,201031015,Rest of Vic.,21.01563
34,1,House,2024,290.0,13 burke street,mortlake,3272.0,2,1,-38.082566,142.8020139,217041477,Rest of Vic.,50.40795
35,1,House,2024,495.0,9 paradise circuit,armstrong creek,3217.0,3,2,-38.2231053,144.3618711,203031489,Rest of Vic.,9.93125
36,2,House,2024,400.0,28 holden st,camperdown,3260.0,3,1,-38.2408251,143.1428467,217031471,Rest of Vic.,69.32310000000001
37,2,House,2024,480.0,83 verdale drive,alfredton,3350.0,4,2,-37.56114,143.7876907,201011001,Rest of Vic.,8.768030000000001
38,0,House,2024,460.0,34 colliver road,shepparton,3630.0,3,1,-36.3997068,145.400468,216031594,Rest of Vic.,2.3022
39,2,Unit,2024,455.0,2/308 barker street,castlemaine,3450.0,2,1,-37.0559096,144.2192908,202021027,Rest of Vic.,38.2037
40,4,House,2024,420.0,5 sofia court,wodonga,3690.0,3,1,-36.1271671,146.9033783,204031492,Rest of Vic.,1.8715
41,0,Studio,2024,395.0,8 garner lane,st leonards,3223.0,1,1,-38.1791716,144.7047954,203031051,Rest of Vic.,32.72926
42,1,Unit,2024,250.0,2/123 cobb street,penshurst,3289.0,2,1,-37.8782576,142.2855463,217011423,Rest of Vic.,68.75665
43,0,House,2024,550.0,37 clonard avenue,geelong west,3218.0,3,1,-38.1354783,144.3443963,203021040,Rest of Vic.,2.78436
44,2,House,2024,540.0,38 manet ave,grovedale,3216.0,3,2,-38.2064473,144.3135023,203021487,Rest of Vic.,8.61326
45,2,House,2024,590.0,11 christian rise,traralgon,3844.0,4,2,-38.1803534,146.5591356,205041493,Rest of Vic.,3.82582
46,0,Unit,2024,380.0,115a mckillop street,geelong,3220.0,1,1,-38.1551359,144.3648864,203021039,Rest of Vic.,1.2823399999999998
47,6,House,2024,990.0,170-240 peak school road,lara,3212.0,3,1,-37.9764728,144.37176,203021043,Rest of Vic.,25.84109
48,2,House,2024,600.0,17 george street,traralgon,3844.0,3,1,-38.1908372,146.5402546,205041493,Rest of Vic.,0.75598
49,1,Unit,2024,380.0,6/2 garden avenue,bairnsdale,3875.0,2,1,-37.8218971,147.6090285,205021081,Rest of Vic.,116.30614999999999
50,2,House,2024,360.0,910 warrenheip street,buninyong,3357.0,3,1,-37.6544633,143.8822338,201011005,Rest of Vic.,11.3714
51,2,House,2024,500.0,101 berrigan drive,bonshaw,3352.0,4,2,-37.5990943,143.8228986,201011006,Rest of Vic.,6.49008
52,0,House,2024,400.0,523 corangamite lake road,cororooke,3254.0,3,1,-38.2891352,143.5222146,217031473,Rest of Vic.,97.86998
53,0,House,2024,420.0,3 union street,kyabram,3620.0,3,1,-36.3188304,145.0477048,216011407,Rest of Vic.,37.853519999999996
54,2,House,2024,390.0,1/71 washington street,traralgon,3844.0,3,2,-38.1968362,146.520161,205041494,Rest of Vic.,1.94274
55,2,House,2024,475.0,577 san mateo avenue,mildura,3500.0,3,2,-34.2161584,142.1347466,215021470,Rest of Vic.,3.31232
56,1,House,2024,320.0,23 talbot street south,ballarat central,3350.0,2,1,-37.5618233,143.842935,201011002,Rest of Vic.,1.89369
57,2,House,2024,450.0,4 sharland rd,corio,3214.0,3,1,-38.0666311,144.3782238,203021486,Rest of Vic.,11.184479999999999
58,2,House,2024,420.0,1783 sturt street,alfredton,3350.0,3,2,-37.550103,143.8046,201011001,Rest of Vic.,5.87699
59,0,House,2024,450.0,35 anderson avenue,inverloch,3996.0,3,1,-38.6297675,145.7392692,205031093,Rest of Vic.,99.58578
60,1,House,2024,370.0,67 gillies street,maryborough,3465.0,3,1,-37.0528914,143.7465737,201031016,Rest of Vic.,66.24808999999999
61,2,Unit,2024,330.0,17 brown street,trafalgar,3824.0,1,1,-38.2083903,146.1614443,205011078,Rest of Vic.,39.47469
62,1,Unit,2024,310.0,2/3-5 wandana drive,wandana heights,3216.0,1,1,-38.1717138,144.3086974,203021042,Rest of Vic.,7.13249
63,0,House,2024,350.0,17 olympic parade,kangaroo flat,3555.0,3,1,-36.7948936,144.2376678,202011022,Rest of Vic.,7.492100000000001
64,2,House,2024,480.0,22 coast avenue,paynesville,3880.0,4,2,-37.9077356,147.7081304,205021086,Rest of Vic.,128.49665
65,2,House,2024,695.0,139 dyar ave,mildura,3500.0,4,2,-34.1718827,142.138593,215021469,Rest of Vic.,3.7584299999999997
66,1,House,2024,400.0,11 exton crescent,benalla,3672.0,2,1,-36.562473,145.9637933,204021063,Rest of Vic.,64.22874
67,3,House,2024,850.0,116 morpung avenue,irymple,3498.0,6,3,-34.2291467,142.1973801,215021395,Rest of Vic.,7.2465
68,0,House,2024,425.0,38 thomson bvd,st leonards,3223.0,3,1,-38.1728844,144.7101723,203031051,Rest of Vic.,33.408550000000005
69,0,Unit,2024,195.0,unit 14/46 tocumwal rd,numurkah,3636.0,1,1,-36.0840483,145.4444563,216021413,Rest of Vic.,35.1417
70,3,House,2024,650.0,62 magpie street,mount pleasant,3350.0,4,2,-37.5776775,143.8635136,201011483,Rest of Vic.,2.21463
71,0,House,2024,390.0,2 koonwarra-inverloch road,koonwarra,3954.0,1,1,-38.5471151,145.946772,205031090,Rest of Vic.,80.55628999999999
72,2,House,2024,545.0,51 moruya drive,grovedale,3216.0,3,1,-38.2050455,144.3183242,203021487,Rest of Vic.,8.596950000000001
73,2,House,2024,580.0,18 windsor avenue,shepparton,3630.0,4,2,-36.356942,145.37203,216031416,Rest of Vic.,5.24515
74,1,House,2024,430.0,20 carpenter street,quarry hill,3550.0,4,1,-36.7713127,144.2854898,202011021,Rest of Vic.,1.65138
75,1,Townhouse,2024,470.0,71b fairfax street,portarlington,3223.0,3,2,-38.1202592,144.6640127,203031051,Rest of Vic.,34.76464
76,7,House,2024,750.0,43 saywell street,north geelong,3215.0,4,2,-38.1285971,144.3485296,203021047,Rest of Vic.,3.1139699999999997
77,2,House,2024,510.0,2b duxbury drive,traralgon,3844.0,3,2,-38.1830936,146.5222198,205041494,Rest of Vic.,2.9358299999999997
78,1,Unit,2024,535.0,8/17 buckworth street,kialla,3631.0,3,2,-36.4110021,145.3904723,216031593,Rest of Vic.,3.4476999999999998
79,1,House,2024,450.0,2/14a nelson street,california gully,3556.0,2,2,-36.7299553,144.2609312,202011019,Rest of Vic.,4.49256
80,1,Townhouse,2024,450.0,1,"2 & 3/162 coppards road, whittington",3219.0,3,2,-38.1801725,144.4009559,203021045,Rest of Vic.,6.22726
81,2,House,2024,550.0,171 mcglone road,drouin,3818.0,3,2,-38.0996117,145.824143,205011076,Rest of Vic.,75.11032
82,2,Townhouse,2024,680.0,235a roslyn road,highton,3216.0,3,2,-38.17320460000001,144.3227214,203021042,Rest of Vic.,5.53844
83,1,Unit,2024,350.0,unit 1/54 hawdon st,shepparton,3630.0,2,1,-36.3731814,145.4146438,216031416,Rest of Vic.,2.5891100000000002
84,2,House,2024,405.0,1617 sturt street,alfredton,3350.0,2,2,-37.5547699,143.8157808,201011001,Rest of Vic.,4.26249
85,0,House,2024,650.0,904 davenport road,learmonth,3352.0,3,2,-37.4474767,143.6999563,201021010,Rest of Vic.,22.524330000000003
86,3,House,2024,560.0,204 seymour street,soldiers hill,3350.0,3,3,-37.5555741,143.8600935,201011482,Rest of Vic.,1.1481400000000002
87,1,Townhouse,2024,480.0,1/179 church street,cowes,3922.0,3,2,-38.4524863,145.2270642,205031091,Rest of Vic.,140.861
88,2,House,2024,450.0,66 elegante road,winter valley,3358.0,4,2,-37.5796583,143.7948474,201011006,Rest of Vic.,8.37463
89,1,Unit,2024,450.0,9/23 hallam street,quarry hill,3550.0,2,1,-36.7738796,144.2863285,202011021,Rest of Vic.,2.6375900000000003
90,3,House,2024,470.0,105 ballarat road,bell park,3215.0,3,1,-38.1189464,144.3332442,203021047,Rest of Vic.,5.3341400000000005
91,2,House,2024,630.0,6 conder parade,clifton springs,3222.0,4,2,-38.16680119999999,144.5582113,203031048,Rest of Vic.,19.80122
92,2,House,2024,550.0,195 mccallum street,swan hill,3585.0,4,1,-35.3403187,143.5420728,215031404,Rest of Vic.,189.18023000000002
93,2,House,2024,500.0,41 rowands street,mount duneed,3217.0,4,2,-38.2327958,144.3311304,203021487,Rest of Vic.,10.92118
94,2,House,2024,430.0,14 wexford court,corio,3214.0,3,1,-38.0727307,144.3514088,203021486,Rest of Vic.,10.91805
95,2,House,2024,510.0,69 iris loop,armstrong creek,3217.0,4,2,-38.2443696,144.3465871,203021485,Rest of Vic.,12.77634
96,2,House,2024,490.0,28 cole street,herne hill,3218.0,3,2,-38.1291677,144.3225289,203021040,Rest of Vic.,5.301399999999999
97,2,House,2024,380.0,9 whittakers rd,traralgon,3844.0,2,1,-38.1986433,146.5436591,205041493,Rest of Vic.,1.1150799999999998
98,5,House,2024,450.0,19 hurd street,portland,3305.0,3,2,-38.3497712,141.6005136,217011422,Rest of Vic.,100.0518
99,4,House,2024,540.0,22 longfin crescent,san remo,3925.0,4,3,-38.5227539,145.3765471,205031093,Rest of Vic.,123.39888
100,3,House,2024,360.0,15 hyacinth grove,wendouree,3355.0,2,1,-37.5270782,143.822063,201011008,Rest of Vic.,6.89195
101,1,House,2024,450.0,29 ferndale parade,highton,3216.0,3,1,-38.17086440000001,144.3240831,203021042,Rest of Vic.,5.52425
102,1,Unit,2024,370.0,1/263a maude street,shepparton,3630.0,2,1,-36.3820963,145.4008707,216031594,Rest of Vic.,0.34146
103,0,House,2024,460.0,412a lydiard street north north,soldiers hill,3350.0,3,2,-37.5521316,143.8598418,201011482,Rest of Vic.,1.42003
104,4,House,2024,550.0,63 strathclyde crescent,woodend,3442.0,2,2,-37.3856183,144.5206067,202021031,Rest of Vic.,68.16825
105,1,House,2024,585.0,25 little street,daylesford,3460.0,3,2,-37.3341871,144.1461804,201021011,Rest of Vic.,43.806599999999996
106,2,House,2024,460.0,20 gooch court,wheatsheaf,3461.0,3,1,-37.3142229,144.2209973,201021011,Rest of Vic.,50.86508
107,1,Unit,2024,370.0,219 merriang south road,merriang south,3737.0,2,1,-36.5921523,146.6818009,204031071,Rest of Vic.,72.3192
108,2,House,2024,550.0,12 italianate street,charlemont,3217.0,4,2,-38.2216511,144.3669069,203021485,Rest of Vic.,9.140600000000001
109,1,House,2024,340.0,44 ontario avenue,corio,3214.0,3,1,-38.0779287,144.3601646,203021486,Rest of Vic.,8.75859
110,0,Unit,2024,580.0,2/2-4 queen st,bendigo,3550.0,2,1,-36.7601775,144.2815026,202011018,Rest of Vic.,0.171
111,4,House,2024,390.0,14 murrell avenue,portland,3305.0,4,1,-38.3289591,141.5959329,217011422,Rest of Vic.,97.89557
112,1,Townhouse,2024,410.0,25a paratone crescent,st albans park,3219.0,2,1,-38.1936069,144.3953309,203021045,Rest of Vic.,7.07173
113,1,Unit,2024,410.0,3/172 roslyn road,belmont,3216.0,2,1,-38.1731795,144.3269131,203021037,Rest of Vic.,5.17207
114,2,House,2024,520.0,28 palm avenue,paynesville,3880.0,3,2,-37.9036319,147.7116169,205021086,Rest of Vic.,128.77432000000002
115,1,Unit,2024,430.0,1/38 oak street,seymour,3660.0,2,1,-37.0250537,145.1452684,204011059,Rest of Vic.,80.48292
116,2,House,2024,460.0,23 link avenue,kilmore,3764.0,3,2,-37.30310559999999,144.963424,204011056,Rest of Vic.,71.57075
117,1,Unit,2024,320.0,2/8-10 john street,traralgon,3844.0,1,1,-38.19177699999999,146.5486156,205041493,Rest of Vic.,1.24402
118,1,Unit,2024,350.0,9/10 fitzroy street,geelong,3220.0,1,1,-38.1493639,144.3707998,203021039,Rest of Vic.,1.30527
119,2,Townhouse,2024,450.0,15 mulquiney crescent,highton,3216.0,2,1,-38.1887143,144.3141522,203021042,Rest of Vic.,7.90951
120,1,Unit,2024,600.0,5/169-171 hogan street,tatura,3616.0,2,2,-36.4399541,145.230039,216031419,Rest of Vic.,19.36805
121,2,House,2024,410.0,55 lovenear grove,ballarat east,3350.0,3,1,-37.5708866,143.8824036,201011481,Rest of Vic.,2.9686
122,2,House,2024,380.0,23 findlay street,portland,3305.0,3,1,-38.3594201,141.6193655,217011422,Rest of Vic.,104.26656
123,0,House,2024,300.0,54 elizabeth street,horsham,3400.0,3,1,-36.7165656,142.1826057,215011388,Rest of Vic.,228.54867000000002
124,1,Townhouse,2024,350.0,4 bastow lane,lucas,3350.0,3,2,-37.5504611,143.7812262,201011001,Rest of Vic.,7.5848
125,1,House,2024,380.0,205a dowling st,wendouree,3355.0,3,1,-37.5401052,143.839949,201011008,Rest of Vic.,3.85819
126,2,House,2024,400.0,25 malmesbury street,wendouree,3355.0,3,1,-37.5251767,143.8318032,201011008,Rest of Vic.,6.19322
127,2,House,2024,450.0,10 cassowary way,winter valley,3358.0,4,2,-37.5715174,143.7987022,201011006,Rest of Vic.,7.41885
128,3,House,2024,495.0,8 chucklecreek lane,armstrong creek,3217.0,3,2,-38.2334169,144.3741301,203031489,Rest of Vic.,10.74458
129,2,House,2024,500.0,16 miramar drive,armstrong creek,3217.0,4,2,-38.2313408,144.3594177,203031489,Rest of Vic.,10.62926
130,1,House,2024,530.0,28 carson street,shepparton,3630.0,3,1,-36.3650615,145.4095839,216031416,Rest of Vic.,2.79702
131,0,Unit,2024,450.0,1b murray road,queenscliff,3225.0,2,1,-38.271039,144.6320907,203031052,Rest of Vic.,29.65931
132,3,House,2024,550.0,125 mcdonalds road,clunes,3370.0,3,1,-37.2699582,143.7703527,201021010,Rest of Vic.,39.71118
133,1,House,2024,530.0,6 carson street,shepparton,3630.0,3,1,-36.3647881,145.4075677,216031416,Rest of Vic.,2.61422
134,1,Unit,2024,420.0,1/14 airey street,manifold heights,3218.0,2,1,-38.1420495,144.3350385,203021040,Rest of Vic.,2.65403
135,2,House,2024,480.0,13 butler street,lucas,3350.0,4,2,-37.5571898,143.7822886,201011001,Rest of Vic.,9.6562
136,2,House,2024,450.0,13 sprinter way,winter valley,3358.0,4,2,-37.5731018,143.7891994,201011006,Rest of Vic.,8.34957
137,1,House,2024,450.0,66 streeton close,corio,3214.0,3,1,-38.0612887,144.3708591,203021486,Rest of Vic.,11.95314
138,1,House,2024,430.0,1200 havelock street,ballarat north,3350.0,3,1,-37.53703369999999,143.8678945,201011482,Rest of Vic.,3.69308
139,2,House,2024,420.0,2 ada rose heights,brown hill,3350.0,3,2,-37.5582616,143.9080902,201011481,Rest of Vic.,4.78625
140,2,House,2024,560.0,11 momentum drive,mount duneed,3217.0,4,2,-38.2162683,144.3239225,203021487,Rest of Vic.,9.87859
141,2,House,2024,520.0,11 rusticana court,mildura,3500.0,3,2,-34.2014098,142.1397121,215021470,Rest of Vic.,1.3413499999999998
142,0,House,2024,320.0,9/60 halpin crescent,shepparton,3630.0,1,1,-36.36335510000001,145.4007707,216031416,Rest of Vic.,2.66181
143,1,House,2024,470.0,3/20 yaraan street,bell park,3215.0,2,1,-38.1121217,144.3349143,203021047,Rest of Vic.,6.48996
144,2,House,2024,425.0,14a sprinter way,winter valley,3358.0,4,2,-37.5726853,143.7888195,201011006,Rest of Vic.,8.38632
145,4,House,2024,3461.538461538461,20 high plains road,bogong,3699.0,3,2,-36.8047187,147.2236166,204031069,Rest of Vic.,98.66246000000001
146,1,House,2024,550.0,23 kalimna street,hamlyn heights,3215.0,3,2,-38.1205135,144.3298813,203021040,Rest of Vic.,6.00611
147,2,House,2024,510.0,258 warralily boulevard,armstrong creek,3217.0,4,2,-38.2398479,144.3550354,203031489,Rest of Vic.,11.93285
148,1,House,2024,380.0,21 thorburn st,bell park,3215.0,3,1,-38.1123328,144.3396912,203021047,Rest of Vic.,6.22654
149,1,Unit,2024,350.0,19/216 forest street,wendouree,3355.0,2,1,-37.538828,143.83298,201011008,Rest of Vic.,4.9046199999999995
150,2,House,2024,390.0,5 heron street,fryerstown,3451.0,3,1,-37.1373471,144.2500449,202021028,Rest of Vic.,49.969120000000004
151,2,House,2024,380.0,150 ballarat road,hamlyn heights,3215.0,3,1,-38.1156447,144.3297114,203021040,Rest of Vic.,6.08475
152,2,House,2024,550.0,34 shipstern street,armstrong creek,3217.0,4,2,-38.2279775,144.3658126,203031489,Rest of Vic.,9.88695
153,2,House,2024,420.0,19 karana ave,grovedale,3216.0,3,1,-38.21009250000001,144.3325825,203021487,Rest of Vic.,9.366280000000001
154,2,House,2024,525.0,29 palm springs drive,mildura,3500.0,3,2,-34.2202365,142.1355946,215021470,Rest of Vic.,4.578060000000001
155,1,House,2024,560.0,30 boardwalk boulevard,cowes,3922.0,4,2,-38.4593484,145.254979,205031091,Rest of Vic.,137.82189000000002
156,1,Unit,2024,500.0,2/148 sobraon street,shepparton,3630.0,2,1,-36.3871786,145.4110199,216031594,Rest of Vic.,1.9428699999999999
157,2,House,2024,450.0,18 harold street,wendouree,3355.0,3,2,-37.5307469,143.8322438,201011008,Rest of Vic.,5.5408
158,2,House,2024,470.0,36 verdale drive,alfredton,3350.0,4,2,-37.5645604,143.7875977,201011001,Rest of Vic.,8.332889999999999
159,1,House,2024,550.0,33 bay street,rippleside,3215.0,3,1,-38.1215217,144.3570859,203021047,Rest of Vic.,3.98871
160,1,House,2024,450.0,36-38 hunter street,rutherglen,3685.0,3,1,-36.054078,146.4712841,204021065,Rest of Vic.,42.07894
161,2,House,2024,570.0,11 lubec street,lara,3212.0,4,2,-38.0164985,144.3765472,203021043,Rest of Vic.,20.384
162,2,House,2024,1000.0,32 riviera drive,jan juc,3228.0,4,3,-38.3508494,144.291736,203031053,Rest of Vic.,25.79354
163,2,House,2024,850.0,1 whalers court,portland,3305.0,4,1,-38.3363787,141.6076534,217011422,Rest of Vic.,98.73552000000001
164,3,House,2024,350.0,56 maple avenue,wendouree,3355.0,3,1,-37.5284732,143.822374,201011008,Rest of Vic.,6.47692
165,2,House,2024,560.0,16 camden street,lucknow,3875.0,4,2,-37.8035186,147.652849,205021081,Rest of Vic.,121.61027
166,2,Townhouse,2024,430.0,19 bealiba road,moe,3825.0,3,2,-38.1833788,146.2605928,205041095,Rest of Vic.,30.65502
167,2,House,2024,470.0,7 whipbird way,st leonards,3223.0,4,2,-38.1905718,144.7005153,203031051,Rest of Vic.,32.22212
168,3,House,2024,570.0,12 jack brawn ave,churchill,3842.0,4,2,-38.3099347,146.4006729,205041094,Rest of Vic.,22.62012
169,2,House,2024,480.0,21a morgan street,cowes,3922.0,3,2,-38.4586617,145.2406429,205031091,Rest of Vic.,139.27192000000002
170,2,House,2024,550.0,18 filandra street,wangaratta,3677.0,3,2,-36.34035739999999,146.2911113,204021066,Rest of Vic.,72.88458
171,1,Townhouse,2024,420.0,5a railway street,kangaroo flat,3555.0,3,1,-36.8042337,144.245618,202011022,Rest of Vic.,7.60501
172,2,House,2024,430.0,57 vale st,moe,3825.0,3,1,-38.1821038,146.2530192,205041095,Rest of Vic.,34.22444
173,1,Townhouse,2024,460.0,5/70 station road,marshall,3216.0,3,2,-38.1960891,144.3554648,203021485,Rest of Vic.,6.43295
174,2,House,2024,695.0,8 stringers lane,geelong,3220.0,3,2,-38.157801,144.3630926,203021039,Rest of Vic.,1.39795
175,2,House,2024,460.0,542 richards street,canadian,3350.0,3,2,-37.5809832,143.8856826,201011483,Rest of Vic.,3.55572
176,1,House,2024,440.0,42 valley avenue,mount beauty,3699.0,3,1,-36.7333297,147.1808859,204031069,Rest of Vic.,85.82573
177,2,House,2024,710.0,25 gascoyne circuit,lara,3212.0,4,2,-38.0176272,144.3535541,203021043,Rest of Vic.,19.58907
178,1,House,2024,370.0,2/1314 mair street,lake wendouree,3350.0,2,1,-37.5574805,143.8402744,201011002,Rest of Vic.,2.21896
179,1,House,2024,390.0,20 tilton street,shepparton,3630.0,3,1,-36.361154,145.3965945,216031416,Rest of Vic.,3.34122
180,2,Unit,2024,430.0,2/4 eagle point road,eagle point,3878.0,3,1,-37.8925674,147.6792507,205021086,Rest of Vic.,125.86726
181,2,House,2024,600.0,30 blackwood road,lara,3212.0,4,2,-38.0136865,144.3848115,203021043,Rest of Vic.,21.14437
182,2,House,2024,410.0,119 bluff road,st leonards,3223.0,3,1,-38.1900386,144.7083446,203031051,Rest of Vic.,32.75686
183,3,House,2024,460.0,39 church street,maffra,3860.0,4,1,-37.9656003,146.9785636,205051101,Rest of Vic.,61.58928
184,2,House,2024,540.0,7 ackerman street,armstrong creek,3217.0,4,2,-38.2247316,144.3495687,203021485,Rest of Vic.,9.84637
185,2,House,2024,420.0,2/61 gillies street south,alfredton,3350.0,3,2,-37.5614175,143.8173928,201011001,Rest of Vic.,4.49282
186,0,Unit,2024,240.0,2/47 tarwin street,morwell,3840.0,1,1,-38.2408076,146.3971905,205041096,Rest of Vic.,14.65911
187,4,House,2024,500.0,45 stanley street,toora,3962.0,1,1,-38.6647862,146.3241998,205031087,Rest of Vic.,102.53795
188,1,House,2024,450.0,4 howe st,mooroopna,3629.0,2,1,-36.3987045,145.3530756,216031415,Rest of Vic.,5.23083
189,0,House,2024,380.0,301 archer,shepparton,3630.0,3,1,-36.4018344,145.4093487,216031594,Rest of Vic.,3.24965
190,2,House,2024,520.0,60 eagle road,armstrong creek,3217.0,4,2,-38.2395658,144.3754475,203031489,Rest of Vic.,12.34197
191,1,Unit,2024,625.0,18/367 high street,belmont,3216.0,3,2,-38.1879425,144.3297157,203021037,Rest of Vic.,6.069439999999999
192,1,House,2024,360.0,311 elsworth street,mount pleasant,3350.0,3,2,-37.5822096,143.8562074,201011483,Rest of Vic.,3.54955
193,2,House,2024,360.0,14 russell street,benalla,3672.0,2,1,-36.5447954,145.9685627,204021063,Rest of Vic.,62.0519
194,0,Unit,2024,345.0,2/59 church street,lakes entrance,3909.0,2,1,-37.87788219999999,147.9927912,205021084,Rest of Vic.,154.16156
195,0,House,2024,330.0,198 the boulevard,paradise beach,3851.0,2,1,-38.1954676,147.4192668,205051100,Rest of Vic.,82.6037
196,1,Unit,2024,290.0,2/337 gray street,hamilton,3300.0,2,1,-37.7366176,142.0342546,217011421,Rest of Vic.,99.64028
197,2,House,2024,515.0,78 eaglebay road,armstrong creek,3217.0,4,2,-38.229584,144.3647156,203031489,Rest of Vic.,10.05032
198,2,Townhouse,2024,770.0,7 lillium lane,torquay,3228.0,4,3,-38.3071396,144.3330326,203031053,Rest of Vic.,20.40944
199,0,House,2024,425.0,3 ellen avenue,seaspray,3851.0,3,1,-38.3700257,147.1879621,205051100,Rest of Vic.,76.87180000000001
200,2,House,2024,440.0,28 yorkdale boulevard,winter valley,3358.0,3,2,-37.5805876,143.7998889,201011006,Rest of Vic.,7.909890000000001
201,2,House,2024,470.0,1/12 lauriston street,kyneton,3444.0,2,1,-37.2479659,144.4550485,202021030,Rest of Vic.,68.69810000000001
202,1,House,2024,430.0,40 lowndes street,kennington,3550.0,3,1,-36.76655119999999,144.3012011,202011020,Rest of Vic.,2.5692
203,3,House,2024,430.0,23 christie parade,mildura,3500.0,3,1,-34.2023783,142.1545959,215021469,Rest of Vic.,1.512
204,1,Unit,2024,350.0,4/86-88 collins street,drysdale,3222.0,2,1,-38.1677192,144.5765108,203031048,Rest of Vic.,20.59475
205,1,House,2024,370.0,31 weir road,heyfield,3858.0,3,1,-37.9760127,146.7946498,205051101,Rest of Vic.,43.09156
206,1,House,2024,420.0,35 main street,winchelsea,3241.0,3,1,-38.24382020000001,143.9892214,203011036,Rest of Vic.,37.81982
207,2,House,2024,520.0,2 azure close,irymple,3498.0,3,2,-34.2308492,142.167227,215021395,Rest of Vic.,5.91854
208,2,House,2024,490.0,19 meereen street,charlemont,3217.0,3,2,-38.215168,144.3591092,203021485,Rest of Vic.,9.3555
209,2,House,2024,420.0,15 helmer crescent,east geelong,3219.0,3,1,-38.169297,144.3826132,203021039,Rest of Vic.,3.60659
210,3,House,2024,440.0,304 myers street,east geelong,3219.0,2,1,-38.156126,144.3748863,203021039,Rest of Vic.,1.80483
211,2,House,2024,400.0,4 fish street,lakes entrance,3909.0,4,2,-37.8746508,148.010105,205021084,Rest of Vic.,155.81984
212,2,Unit,2024,440.0,4/55 britannia street,geelong west,3218.0,2,1,-38.1346875,144.3435208,203021040,Rest of Vic.,2.9584099999999998
213,3,House,2024,400.0,64 vale street,sebastopol,3356.0,3,1,-37.6032437,143.8330494,201011484,Rest of Vic.,7.15805
214,3,House,2024,450.0,4 cornish st,cobram,3644.0,3,1,-35.9213986,145.660701,216021411,Rest of Vic.,68.09272999999999
215,2,House,2024,450.0,6 fantail street,delacombe,3356.0,4,2,-37.5713429,143.78494,201011006,Rest of Vic.,8.63286
216,0,Unit,2024,494.0,5/37 alexandra street,sebastopol,3356.0,1,1,-37.586055,143.8327195,201011484,Rest of Vic.,4.272060000000001
217,1,Townhouse,2024,580.0,1/1 wurrak crescent,torquay,3228.0,2,2,-38.3220115,144.3095305,203031053,Rest of Vic.,21.36145
218,2,House,2024,440.0,561 beaufort-waubra road,waubra,3352.0,3,2,-37.3724802,143.5857397,201031013,Rest of Vic.,39.2638
219,1,House,2024,440.0,330 church street,hamlyn heights,3215.0,3,1,-38.1281757,144.3213642,203021040,Rest of Vic.,5.3455900000000005
220,2,House,2024,310.0,5 eyckens road,lucas,3350.0,3,3,-37.5479857,143.7648382,201011001,Rest of Vic.,9.76708
221,0,Unit,2024,400.0,18 collins street,drysdale,3222.0,2,1,-38.1723863,144.5719555,203031048,Rest of Vic.,19.9146
222,2,Townhouse,2024,650.0,46b trigg street,geelong west,3218.0,3,2,-38.1326382,144.3396132,203021040,Rest of Vic.,3.76146
223,1,House,2024,390.0,59 gillies street south,alfredton,3350.0,4,1,-37.5612612,143.8173502,201011001,Rest of Vic.,4.4762200000000005
224,1,House,2024,450.0,24 dorothy avenue,belmont,3216.0,2,1,-38.179041,144.3414845,203021037,Rest of Vic.,4.47463
225,1,House,2024,470.0,1/164 neale street,flora hill,3550.0,2,1,-36.7779535,144.2912571,202011021,Rest of Vic.,2.7133499999999997
226,1,Townhouse,2024,480.0,13 maycarn court,warrnambool,3280.0,2,1,-38.3734653,142.5062098,217041479,Rest of Vic.,2.9988
227,1,House,2024,500.0,41 eastwood street,bakery hill,3350.0,4,2,-37.5652438,143.8653976,201011002,Rest of Vic.,0.69973
228,1,House,2024,400.0,50 dunloe avenue,norlane,3214.0,3,1,-38.0892453,144.3466923,203021488,Rest of Vic.,8.64474
229,3,House,2024,450.0,3 pattersons lane,portland,3305.0,3,1,-38.3596431,141.6169922,217011422,Rest of Vic.,103.60664999999999
230,0,House,2024,280.0,43 albert street,horsham,3400.0,3,1,-36.7020369,142.2047631,215011388,Rest of Vic.,229.2245
231,2,House,2024,590.0,4 mollison street,broadford,3658.0,4,2,-37.2049566,145.0362142,204011056,Rest of Vic.,79.35623
232,6,House,2024,1800.0,176 scotchmans rd,drysdale,3222.0,7,4,-38.1530307,144.61569,203031048,Rest of Vic.,26.764200000000002
233,1,Unit,2024,500.0,3/523 raglan parade,warrnambool,3280.0,2,1,-38.3817975,142.4871827,217041480,Rest of Vic.,0.8132999999999999
234,1,House,2024,360.0,5/91 grant st,sebastopol,3356.0,2,1,-37.5940564,143.8322615,201011484,Rest of Vic.,5.38087
235,2,Duplex,2024,700.0,12a trigg street,geelong west,3218.0,3,2,-38.1331462,144.3434769,203021040,Rest of Vic.,4.1043400000000005
236,2,House,2024,600.0,15 derwent street,lara,3212.0,4,2,-38.0172925,144.3578253,203021043,Rest of Vic.,19.50074
237,2,House,2024,460.0,2 olive street,bendigo,3550.0,3,1,-36.7594355,144.2680777,202011018,Rest of Vic.,1.99102
238,2,House,2024,600.0,8 holbein court,grovedale,3216.0,4,2,-38.2085243,144.3204799,203021487,Rest of Vic.,9.11708
239,1,Unit,2024,295.0,1/24 hazelwood road,morwell,3840.0,2,1,-38.2388223,146.3941033,205041096,Rest of Vic.,18.58598
240,1,House,2024,430.0,568 hargreaves street,bendigo,3550.0,1,1,-36.7678668,144.2690893,202011018,Rest of Vic.,1.98903
241,0,House,2024,600.0,102 sunset strip,ocean grove,3226.0,4,1,-38.26684950000001,144.5451438,203031490,Rest of Vic.,27.32711
242,1,Unit,2024,320.0,1/31 victoria street,moe,3825.0,2,1,-38.1847815,146.2454649,205041095,Rest of Vic.,33.23343
243,5,House,2024,650.0,79 masada boulevard,winter valley,3358.0,4,2,-37.5835284,143.7855772,201011006,Rest of Vic.,8.88244
244,0,House,2024,400.0,5565 great alpine road,ovens,3738.0,2,2,-36.6167866,146.8079911,204031071,Rest of Vic.,74.06634
245,1,House,2024,360.0,7/25 somerville street,flora hill,3550.0,1,1,-36.7730302,144.2914757,202011021,Rest of Vic.,2.03646
246,2,House,2024,580.0,26 temt terrace,grovedale,3216.0,4,2,-38.2139458,144.3120584,203021487,Rest of Vic.,9.53987
247,1,Unit,2024,580.0,507/18 malone street,geelong,3220.0,2,1,-38.1405619,144.3555334,203021039,Rest of Vic.,1.18429
248,0,House,2024,350.0,28 madden street,kaniva,3419.0,4,1,-36.3775441,141.2376366,215011390,Rest of Vic.,296.60528000000005
249,3,House,2024,450.0,55 north valley road,highton,3216.0,3,2,-38.1670874,144.3194721,203021042,Rest of Vic.,5.932180000000001
250,2,House,2024,440.0,101 eyre street,ballarat central,3350.0,2,1,-37.5661029,143.8536796,201011002,Rest of Vic.,1.04981
251,0,House,2024,165.0,6 katelyn court,waurn ponds,3216.0,1,2,-38.2070918,144.3043246,203021487,Rest of Vic.,9.65813
252,2,House,2024,520.0,115 grevillea drive,enfield,3352.0,4,2,-37.7345258,143.8058261,201031015,Rest of Vic.,22.14877
253,2,Unit,2024,420.0,16a libau avenue,bell park,3215.0,2,1,-38.1136644,144.3405025,203021047,Rest of Vic.,6.2432
254,1,House,2024,450.0,11 joseph court,morwell,3840.0,3,1,-38.2231312,146.4246492,205041096,Rest of Vic.,12.39374
255,1,House,2024,700.0,29 specimen hill road,golden square,3555.0,3,1,-36.7684381,144.2494806,202011022,Rest of Vic.,4.25549
256,3,House,2024,600.0,4 salisbury avenue,warragul,3820.0,4,2,-38.1466222,145.9134755,205011079,Rest of Vic.,63.33089
257,2,House,2024,450.0,5 monash drive,benalla,3672.0,3,1,-36.5640018,145.9623833,204021063,Rest of Vic.,64.2811
258,0,House,2024,350.0,2 verbenna grove,wendouree,3355.0,3,1,-37.5284982,143.8181972,201011008,Rest of Vic.,7.09388
259,0,House,2024,410.0,22 first street,longwarry,3816.0,3,1,-38.1149759,145.7711436,205011076,Rest of Vic.,81.88557
260,3,House,2024,460.0,24 laura street,maffra,3860.0,3,2,-37.96192,146.9732987,205051101,Rest of Vic.,62.23904
261,1,House,2024,320.0,1/188 separation street,bell park,3215.0,2,1,-38.1095443,144.3341954,203021047,Rest of Vic.,6.675590000000001
262,2,House,2024,560.0,339 settlement road,cowes,3922.0,4,2,-38.4563111,145.2281725,205031091,Rest of Vic.,140.35641
263,2,House,2024,485.0,5 augustine drive,highton,3216.0,3,1,-38.1906936,144.3140532,203021042,Rest of Vic.,7.69337
264,2,House,2024,360.0,1/164 sparks road,norlane,3214.0,3,1,-38.0920888,144.3638084,203021488,Rest of Vic.,7.50443
265,1,House,2024,490.0,4 muscat place,waurn ponds,3216.0,3,1,-38.2093685,144.3096711,203021487,Rest of Vic.,8.862020000000001
266,2,House,2024,440.0,26 semmens avenue,creswick,3363.0,4,2,-37.43064650000001,143.8915871,201021010,Rest of Vic.,17.57462
267,3,House,2024,565.0,1 roalies place,campbells creek,3451.0,4,1,-37.0812437,144.2047187,202021027,Rest of Vic.,41.6084
268,2,House,2024,520.0,2/10 amara way,kangaroo flat,3555.0,3,2,-36.8132925,144.2425574,202011022,Rest of Vic.,9.76107
269,2,House,2024,475.0,20 viogner place,waurn ponds,3216.0,3,1,-38.2159008,144.3019515,203021487,Rest of Vic.,10.45199
270,0,Unit,2024,340.0,1/19 ormond road,traralgon,3844.0,2,1,-38.2062265,146.5494496,205041493,Rest of Vic.,3.09258
271,2,Townhouse,2024,380.0,5/7 tooma street,tallangatta,3700.0,2,1,-36.2174532,147.1731375,204031072,Rest of Vic.,40.152629999999995
272,1,Townhouse,2024,740.0,3/3 pevensey street,geelong,3220.0,3,2,-38.148919,144.3729096,203021039,Rest of Vic.,1.49401
273,3,House,2024,250.0,123 thornhill road,highton,3216.0,1,4,-38.1845196,144.3107906,203021042,Rest of Vic.,7.54926
274,2,House,2024,480.0,113 kildare street,north geelong,3215.0,3,1,-38.1135727,144.3468033,203021047,Rest of Vic.,5.311319999999999
275,2,House,2024,700.0,735 anglesea rd,freshwater creek,3217.0,4,1,-38.2625049,144.2747754,203011036,Rest of Vic.,16.10221
276,1,Unit,2024,260.0,6/5-7 cameron avenue,mildura,3500.0,1,1,-34.1820346,142.1504793,215021469,Rest of Vic.,2.16587
277,2,Townhouse,2024,485.0,4/47 race street,flora hill,3550.0,3,2,-36.7789288,144.2967571,202011021,Rest of Vic.,3.3177600000000003
278,1,House,2024,350.0,118 bennett road,horsham,3400.0,3,1,-36.7233607,142.1869377,215011388,Rest of Vic.,228.38741000000002
279,1,House,2024,550.0,4/156 pigdons road,highton,3216.0,2,2,-38.189318,144.3063088,203021042,Rest of Vic.,8.56588
280,2,Townhouse,2024,420.0,4/4 pilrig avenue,newtown,3220.0,2,2,-38.153786,144.3356158,203021046,Rest of Vic.,3.08789
281,1,House,2024,400.0,68 grand ridge west,mirboo north,3871.0,3,1,-38.3938147,146.1444048,205031090,Rest of Vic.,48.99607
282,1,House,2024,450.0,21 mccurdy road,herne hill,3218.0,3,1,-38.1305991,144.3200544,203021040,Rest of Vic.,5.19487
283,2,House,2024,625.0,33 amphora way,point lonsdale,3225.0,4,2,-38.2680751,144.6089427,203031052,Rest of Vic.,28.43937
284,2,Townhouse,2024,625.0,1 yirrip place,torquay,3228.0,3,3,-38.3216497,144.3098255,203031053,Rest of Vic.,21.36007
285,2,House,2024,480.0,9 thorpe st,california gully,3556.0,3,1,-36.7296209,144.2568269,202011019,Rest of Vic.,4.6463
286,1,Unit,2024,280.0,1/3 pye street,swan hill,3585.0,1,1,-35.3357974,143.55478,215031404,Rest of Vic.,187.9348
287,2,House,2024,470.0,56 dairymans way,bonshaw,3352.0,4,2,-37.6034108,143.819258,201011006,Rest of Vic.,7.10733
288,1,Unit,2024,400.0,6/7 isabella street,grovedale,3216.0,2,1,-38.1980187,144.3410652,203021487,Rest of Vic.,7.245
289,0,Unit,2024,400.0,2/25 johnson street,ballarat central,3350.0,1,1,-37.5547033,143.8516905,201011002,Rest of Vic.,1.99567
290,2,House,2024,750.0,23 brittain avenue,warrnambool,3280.0,4,2,-38.3489802,142.4671399,217041479,Rest of Vic.,5.76521
291,0,Unit,2024,450.0,1/8 coventry court,wodonga,3690.0,2,1,-36.1196057,146.8584171,204031073,Rest of Vic.,3.71143
292,1,House,2024,350.0,16 malmesbury street,wendouree,3355.0,3,1,-37.5259073,143.8321756,201011008,Rest of Vic.,6.12348
293,1,House,2024,370.0,1/228 albert st,sebastopol,3356.0,2,1,-37.601047,143.8406886,201011484,Rest of Vic.,5.34337
294,2,House,2024,480.0,17 sunvalley drive,shepparton,3630.0,4,2,-36.4078645,145.4116685,216031594,Rest of Vic.,4.120310000000001
295,1,Unit,2024,395.0,3/1a villamanta street,geelong west,3218.0,1,1,-38.1464954,144.3521571,203021040,Rest of Vic.,0.93141
296,1,Unit,2024,350.0,2/5-7 sturt street,cobram,3644.0,2,1,-35.9268365,145.6514052,216021411,Rest of Vic.,68.02745
297,1,House,2024,420.0,20 henshall street,warragul,3820.0,3,1,-38.157524,145.9447801,205011079,Rest of Vic.,60.019769999999994
298,0,House,2024,650.0,50 gillespies lane,ballan,3342.0,3,2,-37.608671,144.2344611,201021009,Rest of Vic.,36.44631
299,2,House,2024,425.0,2876 henty highway,wonwondah,3401.0,3,1,-36.8800303,142.1367122,215011389,Rest of Vic.,206.78414
300,4,House,2024,375.0,160 neaves road,callignee,3844.0,2,1,-38.3481084,146.5810808,205041094,Rest of Vic.,22.949759999999998
301,2,House,2024,550.0,19 goldwood drive,alfredton,3350.0,4,2,-37.548873,143.8069423,201011001,Rest of Vic.,5.346430000000001
302,0,Unit,2024,473.0,22/1-3 church street,grovedale,3216.0,1,1,-38.19783,144.3409721,203021487,Rest of Vic.,7.2337299999999995
303,0,Unit,2024,3807.692307692308,2/3 schuss street,falls creek,3699.0,4,1,-36.8649138,147.2778861,204031069,Rest of Vic.,114.52023
304,2,House,2024,480.0,125 elton road,neerim,3831.0,3,1,-37.9613682,145.9378641,205011077,Rest of Vic.,84.0962
305,3,House,2024,280.0,4 frederick street,bendigo,3550.0,1,1,-36.7495159,144.2780605,202011018,Rest of Vic.,2.0559600000000002
306,1,Unit,2024,350.0,2/48 francis street,bairnsdale,3875.0,2,1,-37.824696,147.6236982,205021081,Rest of Vic.,116.96024
307,2,House,2024,590.0,5 caitlin street,lara,3212.0,4,2,-38.0317129,144.388674,203021043,Rest of Vic.,15.27804
308,2,House,2024,650.0,688 batman rd,indented head,3223.0,5,2,-38.1372194,144.7026774,203031051,Rest of Vic.,39.18594
309,0,House,2024,327.0,20 macrae street,east bairnsdale,3875.0,1,1,-37.82627,147.6465996,205021081,Rest of Vic.,118.99722
310,1,Unit,2024,325.5,1/19 stamford street,wendouree,3355.0,2,1,-37.5293579,143.8296262,201011008,Rest of Vic.,5.84693
311,2,House,2024,525.0,9 batlow st,armstrong creek,3217.0,4,2,-38.2283974,144.3491846,203021485,Rest of Vic.,10.202729999999999
312,2,Townhouse,2024,750.0,34 wurrak crescent,torquay,3228.0,3,2,-38.3215489,144.3077592,203031053,Rest of Vic.,21.61682
313,1,Unit,2024,410.0,1/2 towers street,flora hill,3550.0,2,1,-36.780723,144.291117,202011021,Rest of Vic.,3.0293099999999997
314,2,House,2024,520.0,42 flagstaff drive,portarlington,3223.0,3,2,-38.1233636,144.6528598,203031051,Rest of Vic.,33.768519999999995
315,1,Unit,2024,405.0,12/8-10 regent street,whittington,3219.0,2,2,-38.17307340000001,144.3849937,203021045,Rest of Vic.,3.73213
316,1,House,2024,370.0,4/10 fitzroy street,geelong,3220.0,1,1,-38.1493639,144.3707998,203021039,Rest of Vic.,1.30527
317,1,House,2024,400.0,1/7 yeats street,castlemaine,3450.0,2,2,-37.07414139999999,144.2167838,202021027,Rest of Vic.,40.36817
318,2,Townhouse,2024,650.0,1/4a ruth street,golden square,3555.0,3,1,-36.7606027,144.2537988,202011022,Rest of Vic.,3.28748
319,1,House,2024,440.0,18 montpellier drive,highton,3216.0,3,1,-38.16523979999999,144.3147601,203021042,Rest of Vic.,6.5544899999999995
320,0,Unit,2024,473.0,32/1-3 church street,grovedale,3216.0,1,1,-38.19783,144.3409721,203021487,Rest of Vic.,7.2337299999999995
321,2,House,2024,390.0,18 fischer square,horsham,3400.0,3,2,-36.71685960000001,142.1999816,215011388,Rest of Vic.,226.66108
322,4,House,2024,430.0,127 walker street,black hill,3350.0,3,1,-37.5435695,143.8739827,201011482,Rest of Vic.,3.77235
323,1,Unit,2024,350.0,1/22 cornish street,cobram,3644.0,2,1,-35.921276,145.6626988,216021411,Rest of Vic.,68.27263
324,2,House,2024,450.0,6 pine avenue,cowes,3922.0,2,2,-38.4569099,145.2156491,205031091,Rest of Vic.,142.40913
325,1,Townhouse,2024,550.0,84a apex avenue,belmont,3216.0,3,2,-38.1806039,144.3270119,203021037,Rest of Vic.,5.691529999999999
326,1,Unit,2024,450.0,4/53 marshalltown road,marshall,3216.0,2,1,-38.1969378,144.3564087,203021485,Rest of Vic.,6.861149999999999
327,2,House,2024,480.0,12 o'leary walk,charlemont,3217.0,3,2,-38.2127102,144.3657086,203021485,Rest of Vic.,8.45041
328,0,House,2024,340.0,179 howe street,miners rest,3352.0,3,1,-37.4847883,143.8020143,201011008,Rest of Vic.,12.32069
329,1,House,2024,480.0,8 clarke avenue,belmont,3216.0,3,1,-38.1744297,144.3264989,203021037,Rest of Vic.,5.2730500000000005
330,1,House,2024,420.0,481 etiwanda avenue,mildura,3500.0,3,1,-34.2052213,142.1577859,215021469,Rest of Vic.,1.9396099999999998
331,2,House,2024,610.0,20 orr street,shepparton,3630.0,3,2,-36.3686902,145.4043017,216031416,Rest of Vic.,1.9303599999999999
332,0,Studio,2024,330.0,1/48 numurkah road,shepparton,3630.0,0,1,-36.36274909999999,145.4015992,216031416,Rest of Vic.,2.91584
333,2,House,2024,500.0,15 mclean court,shepparton,3630.0,3,2,-36.3603032,145.393188,216031416,Rest of Vic.,3.5178499999999997
334,0,Unit,2024,285.0,140a mary street,morwell,3840.0,2,1,-38.233268,146.3931484,205041096,Rest of Vic.,14.90119
335,0,Unit,2024,330.0,5/26-28 victoria parade,kilmore,3764.0,2,1,-37.2938877,144.9539047,204011056,Rest of Vic.,71.05216
336,1,Unit,2024,420.0,1/45 william street,wodonga,3690.0,2,1,-36.1285828,146.8828127,204031492,Rest of Vic.,1.32473
337,1,Townhouse,2024,360.0,3/1 dawson street south,ballarat central,3350.0,2,1,-37.5621973,143.8536041,201011002,Rest of Vic.,0.7447699999999999
338,2,House,2024,460.0,51 steamboat avenue,winter valley,3358.0,4,2,-37.585937,143.7959204,201011006,Rest of Vic.,8.20839
339,2,House,2024,440.0,26 cruz road,winter valley,3358.0,4,2,-37.5751942,143.7967988,201011006,Rest of Vic.,8.122819999999999
340,2,House,2024,450.0,13 westbury way,lakes entrance,3909.0,4,2,-37.8634649,148.0157868,205021084,Rest of Vic.,158.66495
341,2,House,2024,800.0,29 gordon street,traralgon,3844.0,3,2,-38.1914688,146.5350792,205041493,Rest of Vic.,0.66747
342,2,Townhouse,2024,580.0,13/83-87 arnold street,bendigo,3550.0,2,2,-36.7507052,144.2834486,202011018,Rest of Vic.,1.59172
343,1,House,2024,360.0,806 doveton street north,soldiers hill,3350.0,3,1,-37.5444881,143.8583962,201011482,Rest of Vic.,2.53422
344,1,Unit,2024,410.0,1/17a the esplanade,geelong,3220.0,2,1,-38.1345554,144.3548863,203021039,Rest of Vic.,2.37406
345,2,Unit,2024,420.0,1/56 ernest street,bell post hill,3215.0,2,1,-38.1004641,144.3277989,203021047,Rest of Vic.,7.88416
346,1,House,2024,500.0,24-26 riverview crescent,wangaratta,3677.0,3,1,-36.3649212,146.3252002,204021066,Rest of Vic.,69.82894999999999
347,2,House,2024,530.0,18 martain avenue,lara,3212.0,3,2,-38.0215741,144.4020581,203021043,Rest of Vic.,16.422400000000003
348,0,House,2024,560.0,1/43 mitchell st,bendigo,3550.0,2,1,-36.7607371,144.2800644,202011018,Rest of Vic.,0.38491000000000003
349,1,House,2024,425.0,91 vincent road,morwell,3840.0,4,2,-38.22904760000001,146.4143292,205041096,Rest of Vic.,13.14249
350,0,House,2024,300.0,13 westh street,underbool,3509.0,3,1,-35.1723359,141.8053626,215021398,Rest of Vic.,152.31109
351,0,House,2024,400.0,22 churchill square,colac,3250.0,2,1,-38.3486058,143.5924814,217031472,Rest of Vic.,75.99465
352,2,House,2024,545.0,12 coolabah place,moe,3825.0,4,2,-38.19196489999999,146.2677473,205041095,Rest of Vic.,32.93657
353,0,House,2024,520.0,28 galleon crescent,sunset strip,3922.0,4,2,-38.4940486,145.2646242,205031091,Rest of Vic.,133.94397
354,1,House,2024,470.0,31 st albans road,east geelong,3219.0,2,1,-38.1609805,144.3718559,203021039,Rest of Vic.,2.14109
355,1,Townhouse,2024,530.0,5 ryan place north,geelong,3220.0,2,1,-38.1502851,144.3601315,203021039,Rest of Vic.,0.56355
356,2,Unit,2024,625.0,2/162 west fyans street,newtown,3220.0,3,2,-38.15821280000001,144.334715,203021046,Rest of Vic.,3.37521
357,2,House,2024,515.0,28 galene drive,armstrong creek,3217.0,3,2,-38.2275178,144.3765768,203031489,Rest of Vic.,10.810120000000001
358,2,Townhouse,2024,600.0,4/45 anchorage way,yarrawonga,3730.0,4,3,-36.0026689,146.0238594,216021414,Rest of Vic.,83.47079
359,2,House,2024,425.0,147 canadian lakes boulevard,canadian,3350.0,4,2,-37.5871753,143.8765793,201011483,Rest of Vic.,4.64708
360,2,House,2024,630.0,24 wanderlust drive,mount duneed,3217.0,4,2,-38.2189714,144.3116763,203021487,Rest of Vic.,11.16809
361,1,Townhouse,2024,225.0,1/8 whittaker crescent,red cliffs,3496.0,2,1,-34.3111472,142.1878417,215021399,Rest of Vic.,15.85333
362,2,House,2024,480.0,17 hawdon street,shepparton,3630.0,4,1,-36.3698285,145.4158246,216031416,Rest of Vic.,2.97422
363,2,Townhouse,2024,400.0,2/201 humffray street south,bakery hill,3350.0,4,2,-37.5652694,143.8645463,201011002,Rest of Vic.,0.6205900000000001
364,0,House,2024,275.0,site 35/2 the boulevard,eildon,3713.0,2,1,-37.23313270000001,145.9016138,204011054,Rest of Vic.,140.02616
365,1,House,2024,430.0,307 church street,herne hill,3218.0,3,1,-38.1288202,144.3226119,203021040,Rest of Vic.,5.262239999999999
366,2,House,2024,620.0,18 macintosh st,shepparton,3630.0,3,1,-36.3928667,145.3988356,216031594,Rest of Vic.,1.2530999999999999
367,1,House,2024,450.0,3 thorburn street,bell park,3215.0,3,1,-38.1126481,144.342349,203021047,Rest of Vic.,5.9894300000000005
368,1,House,2024,460.0,149 st albans road,thomson,3219.0,3,2,-38.1715598,144.3778524,203021039,Rest of Vic.,3.45633
369,2,House,2024,460.0,54 campaspe street,west wodonga,3690.0,3,1,-36.1145038,146.855662,204031073,Rest of Vic.,3.92909
370,0,House,2024,435.0,3 kennards court,inverloch,3996.0,3,1,-38.6267337,145.7286462,205031093,Rest of Vic.,99.00672999999999
371,1,Unit,2024,215.0,4/9 law st,newborough,3825.0,1,1,-38.1867918,146.2941982,205041095,Rest of Vic.,28.39913
372,2,House,2024,400.0,204 talbot street south,ballarat central,3350.0,2,2,-37.564898,143.8418001,201011002,Rest of Vic.,2.1765100000000004
373,3,House,2024,440.0,10 azure avenue,golden beach,3851.0,3,1,-38.2048191,147.4048431,205051100,Rest of Vic.,81.26661999999999
374,1,House,2024,670.0,2/19 creek street,bendigo,3550.0,2,1,-36.7629937,144.2752968,202011018,Rest of Vic.,1.39712
375,1,Unit,2024,400.0,110 mitchell street,bendigo,3550.0,2,1,-36.7629437,144.2818515,202011018,Rest of Vic.,0.59705
376,1,House,2024,400.0,524 barkly street,golden point,3350.0,4,1,-37.570967,143.8608216,201011483,Rest of Vic.,1.39827
377,1,Unit,2024,350.0,3/9 nihill street,tongala,3621.0,2,1,-36.2479436,144.9502104,216011407,Rest of Vic.,55.533010000000004
378,2,House,2024,470.0,9 pye lane,huntly,3551.0,4,2,-36.662073,144.3490206,202011025,Rest of Vic.,13.99096
379,1,House,2024,450.0,4/9 saunders street,west bendigo,3550.0,3,1,-36.7568767,144.2471991,202011018,Rest of Vic.,4.02388
380,1,Townhouse,2024,510.0,31 jasmine street,bell park,3215.0,3,2,-38.1168293,144.3357395,203021047,Rest of Vic.,5.71178
381,2,House,2024,410.0,16 lovenear grove,ballarat east,3350.0,3,2,-37.571442,143.8827432,201011481,Rest of Vic.,3.02102
382,2,House,2024,490.0,19 sanderling avenue,armstrong creek,3217.0,4,2,-38.2416363,144.372917,203031489,Rest of Vic.,12.166030000000001
383,4,House,2024,990.0,29 monkey gully road,mansfield,3722.0,4,2,-37.0672037,146.0889035,204011057,Rest of Vic.,120.28428
384,2,House,2024,490.0,7 seal st,armstrong creek,3217.0,4,2,-38.2427308,144.3442172,203021485,Rest of Vic.,12.79254
385,2,House,2024,500.0,5-7 sugargum crescent,kialla,3631.0,3,2,-36.4079836,145.3880496,216031593,Rest of Vic.,3.967
386,1,House,2024,370.0,281 gray street,hamilton,3300.0,2,1,-37.7402252,142.0294379,217011421,Rest of Vic.,99.99531
387,2,House,2024,560.0,77 panorama drive,san remo,3925.0,3,2,-38.5215027,145.3780046,205031093,Rest of Vic.,122.5527
388,0,House,2024,350.0,54 church street,dimboola,3414.0,3,1,-36.4512675,142.0285285,215011390,Rest of Vic.,263.19953000000004
389,2,Townhouse,2024,380.0,1/83 union street,kyabram,3620.0,2,1,-36.3111908,145.0476587,216011407,Rest of Vic.,37.46597
390,1,Unit,2024,320.0,5/24 anderson street,east geelong,3219.0,1,1,-38.1608255,144.3748134,203021039,Rest of Vic.,2.09477
391,2,House,2024,490.0,49 patriot crescent,smythes creek,3351.0,4,2,-37.5968781,143.7970847,201011006,Rest of Vic.,8.5202
392,4,House,2024,490.0,225 hogan street,tatura,3616.0,3,2,-36.4399575,145.2329331,216031419,Rest of Vic.,19.0456
393,3,House,2024,380.0,1 wheildon street,mirboo north,3871.0,3,1,-38.4032243,146.1666745,205031090,Rest of Vic.,47.728269999999995
394,2,House,2024,550.0,10 botanical drive,mount duneed,3217.0,4,2,-38.2181545,144.3150189,203021487,Rest of Vic.,10.80011
395,2,Townhouse,2024,480.0,63a chum street,golden square,3555.0,4,2,-36.7629303,144.2557202,202011022,Rest of Vic.,3.05739
396,3,House,2024,380.0,30 chaucer street,hamilton,3300.0,3,1,-37.7374531,142.0249611,217011421,Rest of Vic.,100.42078
397,1,Unit,2024,325.0,2/4 rathkeale avenue,mount helen,3350.0,2,1,-37.6277332,143.8786293,201011005,Rest of Vic.,8.3175
398,2,Unit,2024,430.0,3/71-73 willis street,portarlington,3223.0,3,2,-38.1185349,144.6569763,203031051,Rest of Vic.,30.9797
399,0,Unit,2024,380.0,4/35 mundy street,geelong,3220.0,2,1,-38.1577402,144.3626778,203021039,Rest of Vic.,1.32019
400,2,Townhouse,2024,650.0,1/28-32 russell street,newtown,3220.0,3,2,-38.1570034,144.3485976,203021046,Rest of Vic.,1.88001
401,2,House,2024,480.0,27 basford court,marshall,3216.0,3,2,-38.2010081,144.3531588,203021485,Rest of Vic.,6.68956
402,2,House,2024,900.0,4/22-24 grove rd,barwon heads,3227.0,3,2,-38.2800464,144.4906693,203031489,Rest of Vic.,23.04468
403,1,House,2024,440.0,8 lime cres,lara,3212.0,3,1,-38.0199587,144.3995006,203021043,Rest of Vic.,16.265040000000003
404,1,House,2024,460.0,3 kitchener crescent,seymour,3660.0,3,1,-37.0353018,145.1490713,204011059,Rest of Vic.,82.79177
405,2,Unit,2024,320.0,45 rilens road,muckleford,3451.0,2,1,-37.0806621,144.1551855,202021028,Rest of Vic.,46.65498
406,3,House,2024,460.0,15 karana avenue,grovedale,3216.0,3,1,-38.2100966,144.3329106,203021487,Rest of Vic.,9.394639999999999
407,1,Unit,2024,370.0,unit 1/81 macisaac road,mooroopna,3629.0,2,1,-36.379283,145.341294,216031415,Rest of Vic.,6.86134
408,0,Unit,2024,340.0,5/112 merrijig drive,torquay,3228.0,1,1,-38.3087187,144.3302783,203031053,Rest of Vic.,19.79006
409,1,Unit,2024,450.0,4/86 orton street,ocean grove,3226.0,2,1,-38.2697645,144.5239999,203031490,Rest of Vic.,24.812459999999998
410,4,Townhouse,2024,470.0,2/93 parkside drive,shepparton,3630.0,2,1,-36.3562684,145.379471,216031416,Rest of Vic.,4.26996
411,2,House,2024,360.0,24 heesom crescent,churchill,3842.0,3,1,-38.30953239999999,146.413531,205041094,Rest of Vic.,21.54171
412,1,House,2024,460.0,61 peter st,grovedale,3216.0,3,1,-38.2057866,144.3335431,203021487,Rest of Vic.,8.894200000000001
413,1,Townhouse,2024,360.0,6 turnbull st,sale,3850.0,2,1,-38.1104793,147.0724925,205051103,Rest of Vic.,56.497510000000005
414,0,House,2024,550.0,40 katamatite-nathalia rd,numurkah,3636.0,3,1,-36.0993994,145.4506241,216021413,Rest of Vic.,34.15463
415,3,House,2024,520.0,5 trudgen street,shepparton,3630.0,4,2,-36.36184739999999,145.4108685,216031416,Rest of Vic.,3.14705
416,2,House,2024,380.0,35 derimal street,horsham,3400.0,3,2,-36.7214263,142.1767335,215011388,Rest of Vic.,228.98506
417,1,Unit,2024,290.0,35/291 york street,sale,3850.0,3,1,-38.1021117,147.0676973,205051103,Rest of Vic.,57.13042
418,2,House,2024,580.0,21 sunflower way,lara,3212.0,4,2,-38.0342393,144.3920401,203021043,Rest of Vic.,14.81034
419,0,House,2024,510.0,53 norman drive,cowes,3922.0,4,2,-38.4558633,145.2171709,205031091,Rest of Vic.,141.31922
420,2,House,2024,480.0,1 gibson street,lucas,3350.0,4,2,-37.5559151,143.7787932,201011001,Rest of Vic.,7.9486099999999995
421,2,House,2024,515.0,99 bowen street,echuca,3564.0,3,1,-36.1321598,144.7645703,216011406,Rest of Vic.,69.28358999999999
422,1,Unit,2024,475.0,2/54 gipps street,port fairy,3284.0,2,1,-38.3851344,142.2390255,217041478,Rest of Vic.,27.115599999999997
423,1,House,2024,380.0,18a meadows avenue,benalla,3672.0,3,1,-36.552655,145.9940968,204021063,Rest of Vic.,62.520410000000005
424,1,House,2024,390.0,62 olympic avenue,shepparton,3630.0,3,1,-36.3612562,145.3895282,216031416,Rest of Vic.,3.32165
425,1,House,2024,420.0,1 gellibrand street,coronet bay,3984.0,3,1,-38.4379029,145.4402323,205031093,Rest of Vic.,112.221
426,1,Unit,2024,400.0,6/369 barnard street,bendigo,3550.0,2,1,-36.7608026,144.2644454,202011018,Rest of Vic.,2.55877
427,2,House,2024,575.0,9a diana street,apollo bay,3233.0,2,2,-38.759781,143.6659993,217031476,Rest of Vic.,124.56192
428,2,Townhouse,2024,600.0,2/46 maude street,shepparton,3630.0,3,2,-36.370964,145.4026632,216031416,Rest of Vic.,1.5406900000000001
429,1,Unit,2024,350.0,10/15 addis street,geelong west,3218.0,1,1,-38.14467390000001,144.3371339,203021040,Rest of Vic.,2.1718800000000003
430,3,House,2024,675.0,50 ross street,malmsbury,3446.0,4,2,-37.18544929999999,144.3917557,202021030,Rest of Vic.,60.28447
431,2,House,2024,490.0,564 settlement road,cowes,3922.0,3,2,-38.4558799,145.206093,205031091,Rest of Vic.,142.30055
432,2,House,2024,550.0,38 campbell road,huntly,3551.0,4,2,-36.6683409,144.3494119,202011025,Rest of Vic.,14.30002
433,1,House,2024,495.0,25 brodie street,wangaratta,3677.0,4,1,-36.3500773,146.3032705,204021066,Rest of Vic.,70.49759
434,3,House,2024,630.0,21 sundial drive,clifton springs,3222.0,5,2,-38.16341329999999,144.5706354,203031048,Rest of Vic.,21.290860000000002
435,2,House,2024,500.0,5b vincent drive,kennington,3550.0,4,2,-36.783034,144.3063334,202011020,Rest of Vic.,4.29691
436,2,House,2024,480.0,15 kelvin avenue,mildura,3500.0,3,1,-34.1969684,142.1562371,215021469,Rest of Vic.,0.89649
437,2,House,2024,1100.0,2155 hendy main road,freshwater creek,3217.0,5,2,-38.3066953,144.2510675,203011036,Rest of Vic.,22.59897
438,2,Townhouse,2024,795.0,1&2/514 ryrie street,east geelong,3219.0,4,2,-38.1568121,144.3851764,203021039,Rest of Vic.,2.38671
439,2,House,2024,520.0,717 fourteenth street,mildura,3500.0,3,2,-34.2051486,142.1548009,215021470,Rest of Vic.,1.58714
440,1,House,2024,700.0,65 cramer street,warrnambool,3280.0,3,2,-38.3760973,142.497002,217041479,Rest of Vic.,1.90584
441,3,House,2024,590.0,6 o'meara street,wodonga,3690.0,4,2,-36.142089,146.8886574,204031491,Rest of Vic.,2.90661
442,2,House,2024,490.0,84 wexford street,alfredton,3350.0,4,2,-37.5620223,143.8020447,201011001,Rest of Vic.,8.738280000000001
443,1,Townhouse,2024,550.0,44 harold street,shepparton,3630.0,2,1,-36.3793559,145.40596,216031416,Rest of Vic.,1.2628
444,1,House,2024,400.0,16 purnell road,corio,3214.0,3,1,-38.0748673,144.3666155,203021486,Rest of Vic.,9.406600000000001
445,2,House,2024,520.0,5 rhonda avenue,st leonards,3223.0,4,2,-38.1645777,144.713125,203031051,Rest of Vic.,34.91206
446,2,House,2024,650.0,81 clarkes rd,fyansford,3218.0,4,2,-38.1366177,144.3002652,203021040,Rest of Vic.,6.48133
447,3,House,2024,365.0,5 queen street north,ballarat east,3350.0,4,1,-37.5595075,143.8764736,201011481,Rest of Vic.,1.72106
448,1,House,2024,490.0,25 robinson street,armstrong creek,3217.0,3,2,-38.245998,144.3784979,203031489,Rest of Vic.,12.31342
449,2,Townhouse,2024,540.0,11a lomond terrace,east geelong,3219.0,3,2,-38.1628162,144.3771591,203021039,Rest of Vic.,2.34346
450,2,House,2024,525.0,12 deloraine st,armstrong creek,3217.0,4,2,-38.2446415,144.3700156,203031489,Rest of Vic.,12.521930000000001
451,1,Unit,2024,360.0,2/23-25 davidson street,traralgon,3844.0,2,1,-38.19075309999999,146.5416757,205041493,Rest of Vic.,0.76066
452,2,House,2024,375.0,6b great ocean road,port campbell,3269.0,3,1,-38.6168474,142.9993185,217031475,Rest of Vic.,61.90295
453,1,House,2024,530.0,158 mitchell street,quarry hill,3550.0,2,1,-36.76809739999999,144.2853746,202011021,Rest of Vic.,1.27335
454,1,House,2024,420.0,11 foster street,redan,3350.0,3,2,-37.5736666,143.8354938,201011484,Rest of Vic.,3.59161
455,1,House,2024,570.0,20 villamanta place,geelong west,3218.0,3,2,-38.144976,144.3498807,203021040,Rest of Vic.,1.3926500000000002
456,1,Unit,2024,310.0,1/4 walker street,camperdown,3260.0,2,1,-38.23327430000001,143.1411293,217031471,Rest of Vic.,67.71176
457,1,Unit,2024,350.0,1/16 ormond road,east geelong,3219.0,2,1,-38.1561398,144.3722433,203021039,Rest of Vic.,1.3783800000000002
458,1,Townhouse,2024,580.0,1/148 sobraon street,shepparton,3630.0,4,2,-36.3871786,145.4110199,216031594,Rest of Vic.,1.9428699999999999
459,2,House,2024,460.0,207 simpson street,ballarat north,3350.0,3,2,-37.5406588,143.8746151,201011482,Rest of Vic.,4.61511
460,1,House,2024,560.0,107 casey street,east bendigo,3550.0,3,1,-36.7570747,144.2999929,202011020,Rest of Vic.,1.8738599999999999
461,2,House,2024,450.0,20 cassowary way,winter valley,3358.0,4,2,-37.5721305,143.7985891,201011006,Rest of Vic.,7.48775
462,2,Townhouse,2024,515.0,3/49 anchorage way,yarrawonga,3730.0,3,3,-36.0025632,146.0245125,216021414,Rest of Vic.,83.52376
463,6,House,2024,630.0,80 considine drive,yinnar south,3869.0,3,1,-38.34314250000001,146.3746,205041094,Rest of Vic.,27.832330000000002
464,2,Unit,2024,425.0,2/2 barclay street,port fairy,3284.0,2,1,-38.3850543,142.2352538,217041478,Rest of Vic.,28.63952
465,2,Townhouse,2024,430.0,24 vera close,numurkah,3636.0,4,2,-36.08342,145.4413555,216021413,Rest of Vic.,35.260160000000006
466,2,House,2024,650.0,2 ingleton street,north bendigo,3550.0,3,3,-36.7427126,144.2725715,202011018,Rest of Vic.,2.7501100000000003
467,2,House,2024,540.0,20 princeton street,mount duneed,3217.0,3,2,-38.2184768,144.3240137,203021487,Rest of Vic.,9.93828
468,2,Unit,2024,270.0,6/24 hazelwood road,morwell,3840.0,1,1,-38.2388223,146.3941033,205041096,Rest of Vic.,18.58598
469,2,House,2024,490.0,20 sundews crescent,armstrong creek,3217.0,4,2,-38.2246749,144.3623275,203031489,Rest of Vic.,10.01328
470,2,House,2024,530.0,6 centella court,korumburra,3950.0,4,2,-38.4342337,145.8083101,205031089,Rest of Vic.,88.79562
471,8,House,2024,350.0,258 latrobe terrace,newtown,3220.0,1,9,-38.1481698,144.3522088,203021046,Rest of Vic.,0.83326
472,2,House,2024,650.0,19 duncan street,fyansford,3218.0,4,2,-38.1375672,144.3058764,203021040,Rest of Vic.,6.54697
473,1,House,2024,500.0,14 kettlewell drive,lara,3212.0,3,2,-38.014582,144.3557874,203021043,Rest of Vic.,19.80404
474,2,Townhouse,2024,525.0,8/157-159 barrabool road,highton,3216.0,3,2,-38.17092830000001,144.3130614,203021042,Rest of Vic.,6.60067
475,1,Unit,2024,450.0,1/37 hutcheson avenue,highton,3216.0,2,1,-38.177856,144.3201113,203021042,Rest of Vic.,6.19736
476,2,House,2024,980.0,150 breguets road,lara,3212.0,4,2,-37.9900354,144.3648224,203021043,Rest of Vic.,23.315240000000003
477,1,House,2024,560.0,29 rotherham street,belmont,3216.0,4,3,-38.177335,144.3307372,203021037,Rest of Vic.,5.34007
478,3,House,2024,400.0,6 down court,corio,3214.0,3,1,-38.070675,144.3568519,203021486,Rest of Vic.,9.58268
479,2,House,2024,395.0,33 view street,castlemaine,3450.0,2,1,-37.0614731,144.2076651,202021027,Rest of Vic.,39.67867
480,0,House,2024,420.0,91 webster street,mortlake,3272.0,4,2,-38.0752445,142.806298,217041477,Rest of Vic.,51.03636
481,2,House,2024,360.0,17 mcinnes cres,churchill,3842.0,4,2,-38.3094855,146.4156595,205041094,Rest of Vic.,21.18798
482,5,House,2024,900.0,58 western beach road,geelong,3220.0,4,2,-38.1409379,144.3570281,203021039,Rest of Vic.,1.66231
483,1,House,2024,290.0,26 hennessy street,horsham,3400.0,3,1,-36.7004339,142.2072918,215011388,Rest of Vic.,229.58711
484,2,House,2024,550.0,11 kinchega drive,shepparton,3630.0,4,2,-36.3811027,145.3993137,216031594,Rest of Vic.,0.27162000000000003
485,2,House,2024,430.0,23 dairy crescent,maryborough,3465.0,4,2,-37.0371998,143.7408677,201031016,Rest of Vic.,68.02841000000001
486,0,Unit,2024,580.0,103/2 queen street,bendigo,3550.0,2,1,-36.7601171,144.2815533,202011018,Rest of Vic.,0.16311
487,0,Unit,2024,220.0,3/19 kurrajong way,beechworth,3747.0,1,1,-36.3673301,146.696514,204031068,Rest of Vic.,42.16691
488,2,House,2024,390.0,583 deakin avenue,mildura,3500.0,2,1,-34.212956,142.1282407,215021470,Rest of Vic.,2.8306799999999996
489,3,House,2024,450.0,143 birdwood avenue,sebastopol,3356.0,4,2,-37.5979979,143.8244384,201011006,Rest of Vic.,6.10929
490,1,Unit,2024,500.0,6/10 grandview pde,barwon heads,3227.0,2,1,-38.2814514,144.4930858,203031489,Rest of Vic.,26.74016
491,1,House,2024,420.0,22 monash avenue,cowes,3922.0,3,1,-38.4545782,145.2452107,205031091,Rest of Vic.,140.12016
492,1,House,2024,380.0,38a alkira avenue,norlane,3214.0,2,1,-38.0934601,144.3515937,203021488,Rest of Vic.,7.1386
493,2,House,2024,530.0,18 koala court,whittington,3219.0,3,2,-38.1792152,144.3852458,203021045,Rest of Vic.,5.20005
494,2,House,2024,620.0,63 maygar avenue,wodonga,3690.0,4,2,-36.143373,146.8941728,204031491,Rest of Vic.,3.4066199999999998
495,1,House,2024,490.0,24 nish street,flora hill,3550.0,3,1,-36.7707665,144.2956372,202011021,Rest of Vic.,2.00864
496,2,House,2024,600.0,1 chatham road,leneva,3691.0,4,2,-36.1605402,146.8930575,204031491,Rest of Vic.,5.626720000000001
497,1,Unit,2024,285.0,2/33 glencoe street,kennington,3550.0,1,1,-36.7634125,144.2974136,202011020,Rest of Vic.,2.07089
498,1,House,2024,420.0,32 crosswaite street,kyabram,3620.0,3,1,-36.3103265,145.0334998,216011407,Rest of Vic.,39.64692
499,4,House,2024,3850.0,7 karlson street,skenes creek,3233.0,3,2,-38.7250418,143.7078696,217031476,Rest of Vic.,118.99458
500,2,House,2024,580.0,9 santolina drive,mildura,3500.0,4,2,-34.2050161,142.150461,215021470,Rest of Vic.,1.59828
501,2,House,2024,500.0,14 tranquility crescent,armstrong creek,3217.0,4,2,-38.2273647,144.377466,203031489,Rest of Vic.,10.9469
502,1,Unit,2024,410.0,1/44 bellarine highway,newcomb,3219.0,2,1,-38.1701036,144.3890492,203021045,Rest of Vic.,3.5634
503,2,House,2024,520.0,18 winterfell rd,charlemont,3217.0,4,2,-38.2134208,144.3626815,203021485,Rest of Vic.,8.52239
504,1,Unit,2024,380.0,2/35 villiers street,port fairy,3284.0,1,1,-38.380973,142.228265,217041478,Rest of Vic.,27.727430000000002
505,2,House,2024,230.0,rooms 1-7/4 lanark court,wodonga,3690.0,7,2,-36.1172287,146.865704,204031073,Rest of Vic.,2.47435
506,4,House,2024,520.0,803 strathfieldsaye road,strathfieldsaye,3551.0,3,2,-36.7997257,144.3459099,202011024,Rest of Vic.,7.94304
507,1,House,2024,230.0,4/2 evelyn st,wendouree,3355.0,1,1,-37.5242794,143.8352646,201011008,Rest of Vic.,6.20413
508,3,House,2024,460.0,2/42 don road,lakes entrance,3909.0,4,2,-37.8731929,148.0053346,205021084,Rest of Vic.,155.82447
509,1,House,2024,370.0,20 cobden street,bendigo,3550.0,2,1,-36.765673,144.2865938,202011018,Rest of Vic.,1.05343
510,2,House,2024,620.0,37 erinmore court,glengarry,3854.0,4,2,-38.1367987,146.5525246,205041098,Rest of Vic.,10.61542
511,1,House,2024,370.0,309 errard street south,ballarat central,3350.0,3,2,-37.5679469,143.8479418,201011002,Rest of Vic.,1.85384
512,2,House,2024,560.0,31 gratwick view,wodonga,3690.0,4,2,-36.1465261,146.8954521,204031491,Rest of Vic.,3.62668
513,1,Unit,2024,380.0,2/25 tallis st,norlane,3214.0,2,1,-38.0929284,144.3642758,203021488,Rest of Vic.,7.48738
514,2,House,2024,580.0,8 norfolk street,north wonthaggi,3995.0,4,2,-38.6051977,145.6112088,205031093,Rest of Vic.,112.33745
515,1,House,2024,175.0,4 north valley road,highton,3216.0,1,1,-38.1705805,144.3193487,203021042,Rest of Vic.,6.1324499999999995
516,2,Townhouse,2024,550.0,68 coridale boulevard,lara,3212.0,3,2,-38.0147601,144.3755327,203021043,Rest of Vic.,20.67962
517,2,House,2024,500.0,23 mcclelland street,bell park,3215.0,3,1,-38.1154606,144.335987,203021047,Rest of Vic.,5.89447
518,1,House,2024,380.0,44 michigan avenue,corio,3214.0,3,1,-38.0757467,144.3667023,203021486,Rest of Vic.,9.436639999999999
519,4,House,2024,450.0,425 sandmount road,katunga,3640.0,4,1,-35.9993158,145.5909518,216021413,Rest of Vic.,60.909459999999996
520,1,House,2024,450.0,33 everton crescent,charlemont,3217.0,3,2,-38.209616,144.3637822,203021485,Rest of Vic.,8.18474
521,1,Unit,2024,275.0,1/630 huntly fosterville road,huntly,3551.0,1,1,-36.6837704,144.396441,202031032,Rest of Vic.,14.602549999999999
522,5,House,2024,650.0,17 clarendon avenue,wodonga,3690.0,4,2,-36.1490647,146.8692902,204031492,Rest of Vic.,4.368180000000001
523,1,House,2024,360.0,1 hakea court,portland,3305.0,3,1,-38.3664873,141.595933,217011422,Rest of Vic.,103.01308999999999
524,1,House,2024,350.0,39 reynolds street,paynesville,3880.0,2,1,-37.9149622,147.716008,205021086,Rest of Vic.,130.47772
525,1,House,2024,410.0,2/3 davis street,belmont,3216.0,2,1,-38.1836128,144.3327069,203021037,Rest of Vic.,5.10935
526,5,House,2024,550.0,260 church road,hazelwood north,3840.0,4,2,-38.2732393,146.463384,205041094,Rest of Vic.,12.386299999999999
527,2,House,2024,775.0,1/39 anderson street,torquay,3228.0,3,2,-38.3335424,144.3194333,203031053,Rest of Vic.,22.006040000000002
528,2,House,2024,500.0,2 fuchsia court,newcomb,3219.0,3,2,-38.1687642,144.3955773,203021045,Rest of Vic.,4.33366
529,1,Unit,2024,345.0,1/16 marungi st,shepparton,3630.0,2,1,-36.374994,145.397358,216031416,Rest of Vic.,1.20285
530,2,House,2024,530.0,86 main st,elliminyt,3250.0,3,2,-38.3533992,143.5838791,217031472,Rest of Vic.,77.12651
531,2,House,2024,475.0,13 mclaughlin st,stawell,3380.0,3,2,-37.0672843,142.7721153,215011392,Rest of Vic.,122.65591
532,2,House,2024,460.0,20 graduation place,churchill,3842.0,3,2,-38.3205646,146.4241961,205041094,Rest of Vic.,21.493959999999998
533,2,Townhouse,2024,625.0,31a gwynne street,hamlyn heights,3215.0,3,3,-38.1271289,144.3331787,203021040,Rest of Vic.,4.66498
534,0,House,2024,450.0,15 mills street,maffra,3860.0,3,1,-37.9698103,146.9882883,205051101,Rest of Vic.,61.149440000000006
535,1,Unit,2024,280.0,2/13 bennett street,shepparton,3630.0,1,1,-36.3946281,145.3957413,216031594,Rest of Vic.,1.46238
536,1,Townhouse,2024,480.0,12/11 brandon mews,grovedale,3216.0,3,2,-38.198034,144.3489492,203021487,Rest of Vic.,6.53804
537,2,House,2024,600.0,30 james street,port fairy,3284.0,4,2,-38.38391050000001,142.2340197,217041478,Rest of Vic.,28.33416
538,0,House,2024,330.0,49 bree road,hamilton,3300.0,2,1,-37.7312415,142.028307,217011421,Rest of Vic.,101.01281
539,2,House,2024,450.0,23 antoinette avenue,bonshaw,3352.0,4,2,-37.5970247,143.8211723,201011006,Rest of Vic.,6.264609999999999
540,1,Townhouse,2024,350.0,unit 2/198 knight st,shepparton,3630.0,2,1,-36.3760728,145.4135827,216031416,Rest of Vic.,2.29677
541,4,House,2024,530.0,3 bloomfields lane,tylden,3444.0,3,1,-37.32891499999999,144.4073951,202021030,Rest of Vic.,79.79086
542,1,Townhouse,2024,320.0,122 peter thomson circuit,yarrawonga,3730.0,1,1,-36.0101381,146.0451651,216021414,Rest of Vic.,86.25152
543,0,House,2024,380.0,79 victoria street,korumburra,3950.0,2,1,-38.428185,145.8163657,205031089,Rest of Vic.,87.94453
544,2,House,2024,340.0,117 elizabeth street,edenhope,3318.0,3,1,-37.0363502,141.2898449,215011393,Rest of Vic.,217.54867000000002
545,2,House,2024,410.0,120 steeles rd,leslie manor,3260.0,4,1,-38.1163772,143.3519597,217031474,Rest of Vic.,89.79966999999999
546,1,Unit,2024,320.0,1/613 ascot street south,redan,3350.0,2,1,-37.5742153,143.842183,201011484,Rest of Vic.,3.03144
547,0,Duplex,2024,480.0,26 kennedy street,castlemaine,3450.0,3,2,-37.063725,144.214836,202021027,Rest of Vic.,39.3135
548,2,House,2024,460.0,2 moreton bay dr,highton,3216.0,3,2,-38.1802845,144.3148027,203021042,Rest of Vic.,6.82578
549,0,House,2024,315.0,6 palm court,heathcote,3523.0,3,1,-36.934648,144.7153555,202021029,Rest of Vic.,47.79664
550,2,House,2024,600.0,10 dorr court,belmont,3216.0,3,2,-38.1906347,144.3468034,203021037,Rest of Vic.,5.5514399999999995
551,2,House,2024,450.0,5 winstanley road,thomson,3219.0,3,2,-38.170542,144.3796145,203021039,Rest of Vic.,3.63642
552,1,House,2024,460.0,13 dean street,belmont,3216.0,3,1,-38.1776312,144.3420559,203021037,Rest of Vic.,4.238569999999999
553,1,House,2024,480.0,6 glasgow street,wodonga,3690.0,3,1,-36.1288501,146.9043701,204031492,Rest of Vic.,2.1718200000000003
554,1,Unit,2024,300.0,10/13 saxtons dr,moe,3825.0,2,1,-38.1708285,146.2606637,205041095,Rest of Vic.,30.60686
555,3,House,2024,495.0,11 hamilton,shepparton,3630.0,3,1,-36.3903614,145.4103386,216031594,Rest of Vic.,1.78473
556,1,House,2024,400.0,721 latrobe street,redan,3350.0,3,2,-37.5722372,143.830172,201011484,Rest of Vic.,3.9624800000000002
557,1,House,2024,450.0,85 stirling road,metung,3904.0,2,1,-37.8836154,147.8509849,205021084,Rest of Vic.,146.59181
558,2,House,2024,815.0,44 stretton drive,torquay,3228.0,4,2,-38.3039496,144.3355323,203031053,Rest of Vic.,19.88328
559,2,House,2024,450.0,22 nethersole,shepparton,3630.0,3,1,-36.3580761,145.3860947,216031416,Rest of Vic.,3.70347
560,3,House,2024,400.0,11 rose street,manangatang,3546.0,4,2,-35.0520618,142.8798145,215031405,Rest of Vic.,146.69938
561,1,House,2024,395.0,5/403 humffray street north,brown hill,3350.0,3,1,-37.5506288,143.9015307,201011481,Rest of Vic.,4.26492
562,1,Townhouse,2024,590.0,123 weller street,geelong west,3218.0,3,2,-38.1411266,144.343767,203021040,Rest of Vic.,2.10085
563,2,House,2024,450.0,316a barkly street,ararat,3377.0,3,2,-37.2849234,142.9405154,215011386,Rest of Vic.,92.50667
564,1,House,2024,560.0,1 reef street,bendigo,3550.0,3,1,-36.7591614,144.2673632,202011018,Rest of Vic.,2.09081
565,2,House,2024,850.0,150 grossmans rd,torquay,3228.0,3,2,-38.3190646,144.3030242,203031053,Rest of Vic.,21.86915
566,1,House,2024,495.0,75 camden road,newtown,3220.0,3,1,-38.1549167,144.3256985,203021046,Rest of Vic.,3.89686
567,2,House,2024,420.0,14 fidge crescent,breakwater,3219.0,3,1,-38.1756649,144.3779568,203021039,Rest of Vic.,4.03665
568,0,House,2024,155.0,9,"1 north valley road, highton",3216.0,1,1,-38.17228679999999,144.3183883,203021042,Rest of Vic.,5.92762
569,2,House,2024,680.0,2 pitt street,bendigo,3550.0,3,2,-36.7601939,144.266542,202011018,Rest of Vic.,2.10979
570,4,House,2024,650.0,33 mcpherson street,horsham,3400.0,3,2,-36.7130782,142.2051298,215011388,Rest of Vic.,226.89683
571,0,House,2024,570.0,56 myers street,bendigo,3550.0,3,2,-36.758958,144.2872243,202011018,Rest of Vic.,0.54338
572,0,Unit,2024,450.0,1c murray road,queenscliff,3225.0,2,1,-38.2711034,144.6322596,203031052,Rest of Vic.,29.78698
573,1,Unit,2024,430.0,2/19 mcmillan avenue,geelong,3220.0,2,1,-38.1342226,144.3522204,203021039,Rest of Vic.,2.2735100000000004
574,2,House,2024,385.0,unit 1,"83 jacaranda street, red cliffs",3496.0,3,1,-34.3106984,142.1868962,215021399,Rest of Vic.,15.61098
575,2,House,2024,450.0,5 butterworth street,castlemaine,3450.0,3,2,-37.0650159,144.2062465,202021027,Rest of Vic.,40.121120000000005
576,1,Unit,2024,320.0,4/368 deakin avenue,mildura,3500.0,2,1,-34.203708,142.141004,215021470,Rest of Vic.,1.81952
577,2,House,2024,510.0,39 harper st,wangaratta,3677.0,4,2,-36.3609048,146.3187742,204021066,Rest of Vic.,69.25619999999999
578,2,Unit,2024,350.0,2/159 phillipson street,wangaratta,3677.0,2,1,-36.3431524,146.307038,204021066,Rest of Vic.,70.91941
579,4,House,2024,470.0,31 roper street,mount beauty,3699.0,3,1,-36.735841,147.17716,204031069,Rest of Vic.,85.52808
580,1,Unit,2024,340.0,5/56 huon creek road,wodonga,3690.0,2,1,-36.1478464,146.8737687,204031492,Rest of Vic.,3.83377
581,2,House,2024,660.0,13 ucres way,golden square,3555.0,3,2,-36.7821223,144.2377531,202011022,Rest of Vic.,5.96476
582,2,Unit,2024,470.0,26b donnybrook road,norlane,3214.0,3,2,-38.0862285,144.3454529,203021488,Rest of Vic.,9.06719
583,1,Townhouse,2024,420.0,3/121 marley street,sale,3850.0,2,1,-38.1016884,147.0697327,205051103,Rest of Vic.,57.20715
584,1,House,2024,380.0,17 mauger street,wendouree,3355.0,3,1,-37.522146,143.8273229,201011008,Rest of Vic.,7.3917
585,2,House,2024,440.0,5 dairy crescent,maryborough,3465.0,4,2,-37.0360767,143.7415958,201031016,Rest of Vic.,68.37106
586,2,House,2024,550.0,8 revival street,charlemont,3217.0,4,2,-38.2204279,144.3671893,203021485,Rest of Vic.,8.983979999999999
587,1,Unit,2024,300.0,10/19 lake avenue,ocean grove,3226.0,1,1,-38.2575603,144.5092267,203031490,Rest of Vic.,22.85922
588,1,Studio,2024,375.0,19 jockia ridge,grovedale,3216.0,1,1,-38.2132643,144.3128117,203021487,Rest of Vic.,9.26957
589,2,House,2024,550.0,10 neiley street,newtown,3220.0,3,1,-38.157558,144.3343845,203021046,Rest of Vic.,3.5171
590,2,House,2024,525.0,37 wanderlust drive,mount duneed,3217.0,4,2,-38.2193542,144.3105,203021487,Rest of Vic.,11.29175
591,2,House,2024,515.0,28 barbra drive,charlemont,3217.0,4,2,-38.214272,144.3557042,203021485,Rest of Vic.,9.07251
592,2,House,2024,675.0,14 otway street,lorne,3232.0,3,1,-38.5368753,143.9720676,203031049,Rest of Vic.,85.36466
593,2,House,2024,400.0,199 timboon-terang road,ecklin south,3265.0,4,1,-38.375445,142.9127085,217031475,Rest of Vic.,40.56218
594,2,House,2024,695.0,31 inveray ave,jan juc,3228.0,3,2,-38.33984950000001,144.2985451,203031053,Rest of Vic.,24.403299999999998
595,2,House,2024,530.0,14 jindabyne street,armstrong creek,3217.0,4,2,-38.2229192,144.3545591,203021485,Rest of Vic.,10.17599
596,0,House,2024,400.0,16 goulburn street,seymour,3660.0,3,1,-37.0280141,145.13849,204011059,Rest of Vic.,81.40397999999999
597,2,House,2024,450.0,10 ferry grove,newcomb,3219.0,3,1,-38.1677748,144.3867571,203021045,Rest of Vic.,3.4638400000000003
598,1,Townhouse,2024,490.0,1/13 oakhill avenue,highton,3216.0,3,2,-38.1706437,144.2997082,203021042,Rest of Vic.,8.06977
599,0,Unit,2024,280.0,1/11 hyland street,moe,3825.0,2,1,-38.1656896,146.2667709,205041095,Rest of Vic.,33.5159
600,1,Unit,2024,380.0,2/42 lansdowne street,sale,3850.0,2,1,-38.1077196,147.0772987,205051103,Rest of Vic.,57.17082
601,2,House,2024,600.0,4 logan court,mount helen,3350.0,4,2,-37.6289012,143.8738292,201011005,Rest of Vic.,8.91308
602,0,House,2024,300.0,838 drysdale road,euroa,3666.0,2,1,-36.7487011,145.4636256,204011055,Rest of Vic.,54.333239999999996
603,4,House,2024,1800.0,26 riverside terrace,barwon heads,3227.0,6,2,-38.2760147,144.4960046,203031489,Rest of Vic.,22.94613
604,2,Unit,2024,480.0,1/3 wren court,wodonga,3690.0,3,2,-36.1291537,146.855246,204031073,Rest of Vic.,4.96179
605,1,House,2024,525.0,149 tower road,portarlington,3223.0,3,3,-38.1236499,144.6445026,203031051,Rest of Vic.,29.45504
606,1,House,2024,560.0,11 pyke street,quarry hill,3550.0,2,1,-36.7695861,144.2852924,202011021,Rest of Vic.,1.59817
607,1,House,2024,350.0,3 trentham street,moe,3825.0,3,1,-38.1873151,146.2420075,205041095,Rest of Vic.,33.30413
608,2,House,2024,440.0,62 alfredton drive,alfredton,3350.0,3,2,-37.5604076,143.7951288,201011001,Rest of Vic.,6.93304
609,1,House,2024,350.0,cabin 2/18 williams street,inverloch,3996.0,1,1,-38.6326013,145.7302522,205031093,Rest of Vic.,99.31473
610,2,Townhouse,2024,570.0,45b victory way,highton,3216.0,3,2,-38.1670493,144.3095253,203021042,Rest of Vic.,7.246989999999999
611,1,Unit,2024,380.0,1/40 canadian parade,corio,3214.0,3,1,-38.0760746,144.3617995,203021486,Rest of Vic.,9.08498
612,1,House,2024,600.0,214 liebig street,warrnambool,3280.0,4,2,-38.3789719,142.4875733,217041479,Rest of Vic.,1.09906
613,2,House,2024,500.0,145 birdwood avenue,sebastopol,3356.0,5,2,-37.5979659,143.824389,201011006,Rest of Vic.,6.105
614,1,Unit,2024,440.0,302/8 gheringhap street,geelong,3220.0,1,1,-38.14371939999999,144.3591158,203021039,Rest of Vic.,0.91963
615,1,House,2024,430.0,3 pitcher street,ararat,3377.0,4,2,-37.2839469,142.9187106,215011386,Rest of Vic.,94.92647
616,1,House,2024,520.0,4/127 barrabool road,highton,3216.0,2,2,-38.17110539999999,144.3169352,203021042,Rest of Vic.,6.19632
617,2,House,2024,430.0,341 vickers street,sebastopol,3356.0,4,2,-37.5930848,143.8288076,201011484,Rest of Vic.,5.38701
618,1,House,2024,750.0,23 king street,daylesford,3460.0,3,3,-37.3510508,144.141163,201021011,Rest of Vic.,47.5881
619,1,House,2024,330.0,7a mckenzie street,wonthaggi,3995.0,2,1,-38.6105845,145.5968855,205031093,Rest of Vic.,136.38377
620,2,House,2024,590.0,8 inverness dr,junortoun,3551.0,4,2,-36.7801549,144.3426993,202011024,Rest of Vic.,7.415520000000001
621,0,House,2024,500.0,1/17 macrae street,east bairnsdale,3875.0,3,1,-37.8251206,147.6474277,205021081,Rest of Vic.,118.85674
622,0,Unit,2024,380.0,6/506 dana street,ballarat central,3350.0,2,1,-37.5632005,143.8517788,201011002,Rest of Vic.,1.09004
623,1,House,2024,420.0,31 mathieson st,sale,3850.0,3,1,-38.0947929,147.07316,205051103,Rest of Vic.,54.85104
624,2,House,2024,310.0,10 mcneill street,ararat,3377.0,2,1,-37.2759694,142.9269105,215011386,Rest of Vic.,94.60512
625,3,House,2024,350.0,12 robert street,morwell,3840.0,3,1,-38.2207865,146.4244772,205041096,Rest of Vic.,12.146700000000001
626,0,House,2024,400.0,2 maude street,morwell,3840.0,3,1,-38.2290791,146.4094198,205041096,Rest of Vic.,13.787030000000001
627,2,House,2024,450.0,25 howkins avenue,winter valley,3358.0,4,2,-37.5893695,143.8012178,201011006,Rest of Vic.,7.250100000000001
628,0,House,2024,450.0,27 dimora avenue,camperdown,3260.0,3,1,-38.23496,143.1364802,217031471,Rest of Vic.,67.76263
629,2,Townhouse,2024,610.0,2/15 maurice street,herne hill,3218.0,3,2,-38.1290734,144.3220466,203021040,Rest of Vic.,5.29755
630,1,House,2024,395.0,322 raglan street south,ballarat central,3350.0,2,1,-37.5686348,143.8486758,201011002,Rest of Vic.,1.78859
631,0,House,2024,365.0,1226 grevillea road,wendouree,3355.0,3,1,-37.5261684,143.8212266,201011008,Rest of Vic.,6.87689
632,2,House,2024,550.0,45 meadowbrook crescent,warragul,3820.0,4,2,-38.1521487,145.9187895,205011079,Rest of Vic.,62.40446
633,1,House,2024,390.0,4/1-4 howe court,geelong west,3218.0,2,1,-38.1338634,144.3462659,203021040,Rest of Vic.,2.89756
634,0,Unit,2024,310.0,5 treasure street,castlemaine,3450.0,1,1,-37.071673,144.2349488,202021027,Rest of Vic.,41.238949999999996
635,0,House,2024,405.0,29 mill road,harrietville,3741.0,2,1,-36.8982059,147.0595759,204031069,Rest of Vic.,121.61094
636,2,House,2024,500.0,8 james drive,delacombe,3356.0,4,2,-37.5801638,143.8137491,201011006,Rest of Vic.,5.77189
637,1,House,2024,570.0,22 chadwick street,newtown,3220.0,3,2,-38.1487675,144.3416466,203021046,Rest of Vic.,2.26716
638,2,House,2024,410.0,69 twelfth street,mildura,3500.0,3,1,-34.1959567,142.161057,215021469,Rest of Vic.,1.96982
639,2,House,2024,520.0,57 giovanni drive,charlemont,3217.0,4,3,-38.2094609,144.3519798,203021485,Rest of Vic.,9.37589
640,2,House,2024,550.0,15 aeolus street,armstrong creek,3217.0,4,2,-38.2277531,144.3774786,203031489,Rest of Vic.,10.87827
641,0,Unit,2024,320.0,1/110 west fyans st,newtown,3220.0,1,1,-38.1590759,144.3420104,203021046,Rest of Vic.,2.74121
642,2,House,2024,480.0,96 commercial road,morwell,3840.0,4,2,-38.2349237,146.3874803,205041096,Rest of Vic.,17.66691
643,2,House,2024,600.0,19 blackwood crescent,yarrawonga,3730.0,4,2,-36.0174954,146.0167865,216021414,Rest of Vic.,81.87048
644,1,Unit,2024,285.0,24/30-38 park lane,traralgon,3844.0,1,1,-38.1879313,146.5530905,205041493,Rest of Vic.,1.95119
645,1,Unit,2024,600.0,308/18 malone street,geelong,3220.0,2,1,-38.1405619,144.3555334,203021039,Rest of Vic.,1.18429
646,1,House,2024,410.0,62 giot drive,wendouree,3355.0,3,2,-37.5183299,143.830603,201011008,Rest of Vic.,6.90596
647,2,House,2024,520.0,47 hedge street,armstrong creek,3217.0,4,2,-38.2370747,144.3506226,203021485,Rest of Vic.,11.97064
648,1,House,2024,495.0,33 kerr street,warrnambool,3280.0,3,1,-38.3764961,142.4761691,217041480,Rest of Vic.,1.20421
649,1,House,2024,525.0,22 newell street,lara,3212.0,3,2,-38.03370140000001,144.3967547,203021043,Rest of Vic.,14.73031
650,1,Unit,2024,330.0,1/10 lake street,lake wendouree,3350.0,1,1,-37.5507463,143.8461516,201011002,Rest of Vic.,2.66823
651,2,House,2024,445.0,14 hotchkiss way,smythes creek,3351.0,4,2,-37.5942474,143.8004101,201011006,Rest of Vic.,7.61124
652,2,House,2024,460.0,60 pritchard street,swan hill,3585.0,3,1,-35.3369792,143.5455256,215031404,Rest of Vic.,188.78981
653,2,House,2024,675.0,75 dell boulevard,fyansford,3218.0,4,2,-38.1387399,144.3060469,203021040,Rest of Vic.,6.4178500000000005
654,2,Unit,2024,570.0,10 o'farrell place,geelong,3220.0,2,1,-38.1493128,144.3575098,203021039,Rest of Vic.,0.37288
655,2,House,2024,530.0,10 atlantic drive,indented head,3223.0,4,2,-38.1391363,144.7015425,203031051,Rest of Vic.,39.65985
656,1,House,2024,500.0,54 ernest street,bell post hill,3215.0,3,1,-38.1003926,144.3279504,203021047,Rest of Vic.,7.87224
657,8,House,2024,450.0,2 tait street,delacombe,3356.0,4,2,-37.58820619999999,143.8253716,201011006,Rest of Vic.,5.00578
658,2,House,2024,440.0,91 the avenue,traralgon,3844.0,3,1,-38.1859684,146.557197,205041493,Rest of Vic.,2.67607
659,1,Unit,2024,410.0,82b giddings street,north geelong,3215.0,2,1,-38.1154541,144.3462049,203021047,Rest of Vic.,5.15746
660,1,House,2024,425.0,23 fitzroy street,sale,3850.0,3,1,-38.1008853,147.0613956,205051103,Rest of Vic.,50.572669999999995
661,1,House,2024,670.0,1/157 wendouree parade,lake wendouree,3350.0,2,2,-37.5565091,143.8314269,201011002,Rest of Vic.,3.2752
662,1,House,2024,280.0,32 holloway street,boort,3537.0,3,1,-36.1124187,143.7295645,202031033,Rest of Vic.,103.22045
663,2,House,2024,400.0,6 seymour crescent,soldiers hill,3350.0,2,1,-37.5549076,143.8631584,201011482,Rest of Vic.,1.44559
664,1,House,2024,450.0,45 settlement rd,belmont,3216.0,3,1,-38.1795823,144.3507819,203021037,Rest of Vic.,4.09962
665,2,House,2024,420.0,1010 dana street,ballarat central,3350.0,3,3,-37.5624697,143.8445797,201011002,Rest of Vic.,1.6811099999999999
666,2,House,2024,510.0,10 bluebill street,st leonards,3223.0,4,2,-38.1880177,144.7033186,203031051,Rest of Vic.,32.59268
667,2,House,2024,480.0,61 scenic drive,cowes,3922.0,3,2,-38.4610461,145.205871,205031091,Rest of Vic.,142.70303
668,2,House,2024,850.0,230 view street,bendigo,3550.0,3,3,-36.754721,144.2740156,202011018,Rest of Vic.,1.2649000000000001
669,1,House,2024,170.0,room 5,"5 ficinia mews, highton",3216.0,1,1,-38.1992192,144.3066506,203021042,Rest of Vic.,8.62468
670,0,House,2024,540.0,7 gleno court,cardigan,3352.0,4,2,-37.5326068,143.7689866,201011001,Rest of Vic.,9.13565
671,1,Unit,2024,390.0,2/9 burnett street,sebastopol,3356.0,3,2,-37.6028248,143.841629,201011484,Rest of Vic.,5.9958800000000005
672,1,Unit,2024,475.0,4/17a the esplanade,geelong,3220.0,2,1,-38.1345686,144.3548803,203021039,Rest of Vic.,2.3755900000000003
673,2,House,2024,1400.0,25 shakespeare avenue,mount helen,3350.0,8,4,-37.6256366,143.8757438,201011005,Rest of Vic.,8.03603
674,1,Unit,2024,350.0,1/29 paola lane,germantown,3741.0,2,1,-36.7490015,147.0236089,204031069,Rest of Vic.,103.26834
675,6,House,2024,800.0,150 thielemanns rd,gherang,3240.0,4,2,-38.309298,144.1173366,203011036,Rest of Vic.,33.939809999999994
676,0,House,2024,365.0,30 malmesbury street,wendouree,3355.0,3,1,-37.524696,143.8323283,201011008,Rest of Vic.,6.2375
677,1,Townhouse,2024,375.0,4a inkerman street,newington,3350.0,3,1,-37.5661725,143.836856,201011002,Rest of Vic.,2.85984
678,2,House,2024,500.0,19 skipton street,ballarat central,3350.0,5,2,-37.5684386,143.8538904,201011002,Rest of Vic.,1.65093
679,0,House,2024,165.0,room 4/32-34 churchill avenue,bendigo,3550.0,1,1,-36.7730392,144.2925706,202011021,Rest of Vic.,2.01434
680,2,House,2024,820.0,228 view street,bendigo,3550.0,3,3,-36.7549673,144.2742528,202011018,Rest of Vic.,1.78904
681,1,Unit,2024,215.0,1/302 old sale road,newborough,3825.0,1,1,-38.1804039,146.2945697,205041095,Rest of Vic.,28.49633
682,2,House,2024,380.0,208 san mateo avenue,mildura,3500.0,3,1,-34.1964541,142.1594601,215021469,Rest of Vic.,2.0305
683,0,House,2024,475.0,39 vicki court,scarsdale,3351.0,3,2,-37.6650177,143.6667537,201031015,Rest of Vic.,23.57359
684,1,House,2024,360.0,20 canterbury street,brown hill,3350.0,3,1,-37.5553499,143.8883554,201011481,Rest of Vic.,2.99729
685,1,Townhouse,2024,320.0,1 4/33 gorman drive,yarrawonga,3730.0,1,1,-36.0233472,146.0175264,216021414,Rest of Vic.,81.0813
686,1,Unit,2024,500.0,803/44 ryrie street,geelong,3220.0,1,1,-38.1483146,144.3554954,203021039,Rest of Vic.,0.5669500000000001
687,2,House,2024,1200.0,6 varydale ave,torquay,3228.0,5,2,-38.32372489999999,144.3231099,203031053,Rest of Vic.,21.03036
688,1,House,2024,370.0,42 bennett road,horsham,3400.0,3,1,-36.7148522,142.1869983,215011388,Rest of Vic.,228.27192000000002
689,1,Unit,2024,260.0,2/106 leith street,redan,3350.0,1,1,-37.57996320000001,143.8438546,201011484,Rest of Vic.,3.44825
690,1,House,2024,520.0,3114 murray valley highway,cobram,3644.0,4,2,-35.9545184,145.687036,216021411,Rest of Vic.,61.25743
691,1,House,2024,350.0,17 coster street,benalla,3672.0,2,1,-36.5538232,145.9910101,204021063,Rest of Vic.,62.135160000000006
692,1,House,2024,380.0,8a saunders close,mount pleasant,3350.0,2,2,-37.5837264,143.858845,201011483,Rest of Vic.,3.8127199999999997
693,2,House,2024,450.0,1 hillside court,campbells creek,3451.0,3,1,-37.08307920000001,144.2064474,202021027,Rest of Vic.,42.12189
694,0,House,2024,620.0,73 vincent street north,daylesford,3460.0,3,2,-37.3308462,144.1439295,201021011,Rest of Vic.,44.07517
695,0,House,2024,600.0,68 averys road,california gully,3556.0,4,2,-36.7204772,144.2762283,202011019,Rest of Vic.,5.53702
696,2,House,2024,440.0,5 swallow street,winter valley,3358.0,4,2,-37.5707004,143.7973609,201011006,Rest of Vic.,7.35052
697,1,House,2024,520.0,13b bergin grove,san remo,3925.0,3,2,-38.5241466,145.3680609,205031093,Rest of Vic.,123.72823
698,0,House,2024,420.0,40 bramble street,bendigo,3550.0,3,1,-36.7594313,144.2872675,202011018,Rest of Vic.,0.65431
699,2,House,2024,470.0,13 albanel street,armstrong creek,3217.0,4,2,-38.2453022,144.3459186,203021485,Rest of Vic.,12.92177
700,2,House,2024,500.0,12 anderson court,yarrawonga,3730.0,4,2,-36.0065526,146.0504226,216021414,Rest of Vic.,86.45197999999999
701,2,Unit,2024,485.0,2/16 burn street,golden square,3555.0,3,2,-36.7680411,144.2575229,202011022,Rest of Vic.,3.6293800000000003
702,8,House,2024,950.0,81 lake mokoan rd,goorambat,3725.0,4,2,-36.4588668,146.0129657,204021064,Rest of Vic.,66.43964
703,5,House,2024,400.0,338 forest street,wendouree,3355.0,3,1,-37.529823,143.8336052,201011008,Rest of Vic.,5.51312
704,2,House,2024,495.0,23 horwood drive,canadian,3350.0,4,2,-37.59235109999999,143.874004,201011483,Rest of Vic.,4.66696
705,2,House,2024,450.0,4 kimball street,smythes creek,3351.0,4,2,-37.5965495,143.8000388,201011006,Rest of Vic.,8.472290000000001
706,1,House,2024,370.0,2 may park terrace,horsham,3400.0,3,1,-36.7114104,142.1959449,215011388,Rest of Vic.,227.58089
707,1,House,2024,420.0,4/8 dale st,kennington,3550.0,1,1,-36.761756,144.3015916,202011020,Rest of Vic.,2.37119
708,1,House,2024,390.0,15 hopkins street,winchelsea,3241.0,3,1,-38.2403973,143.9949164,203011036,Rest of Vic.,37.434650000000005
709,1,House,2024,360.0,19 ivanhoe street,wendouree,3355.0,3,1,-37.5240212,143.8271692,201011008,Rest of Vic.,7.07513
710,0,House,2024,330.0,1 iris street,horsham,3400.0,3,1,-36.7200285,142.1906594,215011388,Rest of Vic.,227.91010999999997
711,4,House,2024,410.0,84 gange street,mooroopna,3629.0,3,1,-36.3779761,145.3422418,216031415,Rest of Vic.,6.875649999999999
712,2,House,2024,570.0,38 bellarine hwy,newcomb,3219.0,6,3,-38.1699906,144.3884243,203021045,Rest of Vic.,3.5077399999999996
713,3,House,2024,385.0,6 lake street,shepparton,3630.0,3,1,-36.391913,145.3981545,216031594,Rest of Vic.,1.22253
714,2,House,2024,550.0,5 nelson dr,moe,3825.0,4,2,-38.1754038,146.2409568,205041095,Rest of Vic.,35.06541
715,2,House,2024,430.0,6 alison street,portarlington,3223.0,3,1,-38.1204124,144.641611,203031051,Rest of Vic.,29.549049999999998
716,2,House,2024,485.0,2 morses court tawonga south,tawonga south,3698.0,3,2,-36.7333827,147.1505288,204031069,Rest of Vic.,83.00705
717,2,House,2024,520.0,44 milton avenue,spring gully,3550.0,4,2,-36.7907648,144.2803059,202011021,Rest of Vic.,4.32653
718,1,House,2024,540.0,112 st aidans road,kennington,3550.0,4,1,-36.7634374,144.2981578,202011020,Rest of Vic.,2.08687
719,2,House,2024,480.0,63 dorset drive,alfredton,3350.0,4,2,-37.5617322,143.7975446,201011001,Rest of Vic.,6.963430000000001
720,1,House,2024,390.0,45 south street,belmont,3216.0,3,1,-38.1733833,144.3322619,203021037,Rest of Vic.,4.81006
721,1,House,2024,350.0,3/428 walnut ave,mildura,3500.0,2,1,-34.2018874,142.1329777,215021470,Rest of Vic.,2.30371
722,1,Studio,2024,250.0,38a high street,yea,3717.0,0,0,-37.2107023,145.4245479,204011062,Rest of Vic.,129.35219
723,4,House,2024,500.0,14 charlton rise,dalyston,3992.0,4,2,-38.5598034,145.5472869,205031093,Rest of Vic.,128.45837
724,2,House,2024,450.0,26 wilmott street,lucas,3350.0,4,2,-37.5506602,143.7785928,201011001,Rest of Vic.,8.60217
725,0,House,2024,350.0,398 dairtnunk avenue,cardross,3496.0,1,1,-34.2868589,142.1437534,215021399,Rest of Vic.,12.90169
726,1,House,2024,460.0,11 saade street,epsom,3551.0,3,1,-36.7112328,144.3104539,202011025,Rest of Vic.,6.94523
727,1,Unit,2024,320.0,2/43 barr street,tungamah,3728.0,2,1,-36.1649749,145.8778458,216021412,Rest of Vic.,58.15655
728,2,House,2024,410.0,21 francis street,horsham,3400.0,4,2,-36.7031414,142.1973076,215011388,Rest of Vic.,228.68967
729,1,House,2024,410.0,99 ambleside crescent,mildura,3500.0,3,2,-34.1999322,142.1771093,215021469,Rest of Vic.,3.52339
730,1,House,2024,390.0,2/32-34 kerr street,warrnambool,3280.0,1,1,-38.3756952,142.4753088,217041480,Rest of Vic.,1.42603
731,1,House,2024,400.0,36 lansell street,east bendigo,3550.0,2,1,-36.7554936,144.2963655,202011020,Rest of Vic.,1.7018199999999999
732,0,Unit,2024,473.0,5/142-152 townsend road,st albans park,3219.0,1,1,-38.1822914,144.3975105,203021045,Rest of Vic.,5.6809899999999995
733,1,House,2024,640.0,81 averys road,jackass flat,3556.0,3,1,-36.7203466,144.2779325,202011019,Rest of Vic.,5.3632100000000005
734,3,House,2024,900.0,315 deans marsh lorne road,deans marsh,3235.0,4,2,-38.4232118,143.8944913,203011036,Rest of Vic.,65.54303999999999
735,1,Unit,2024,320.0,3/62 davidson street,traralgon,3844.0,1,1,-38.1904574,146.5447537,205041493,Rest of Vic.,1.02216
736,1,Townhouse,2024,510.0,1/158 pigdons road,highton,3216.0,2,2,-38.1893185,144.306308,203021042,Rest of Vic.,8.56582
737,3,House,2024,450.0,11 tampa road,cape woolamai,3925.0,3,2,-38.5233658,145.3335711,205031091,Rest of Vic.,127.22227000000001
738,2,House,2024,540.0,2/7097 great alpine road,porepunkah,3740.0,3,1,-36.7057385,146.9199358,204031069,Rest of Vic.,89.41786
739,1,Townhouse,2024,500.0,7/17 buckworth street,kialla,3631.0,2,1,-36.411111,145.3904834,216031593,Rest of Vic.,3.44725
740,1,Unit,2024,300.0,11/34 chertsey road,shepparton,3630.0,2,1,-36.3750092,145.4131245,216031416,Rest of Vic.,2.24598
741,1,House,2024,460.0,10 hunter street,golden square,3555.0,3,1,-36.77723210000001,144.258528,202011022,Rest of Vic.,3.6896799999999996
742,2,House,2024,595.0,64 windlass avenue,mooroopna,3629.0,5,2,-36.3710535,145.3394017,216031415,Rest of Vic.,7.70574
743,2,House,2024,470.0,21 boundary road,newcomb,3219.0,3,1,-38.1589957,144.3866716,203021045,Rest of Vic.,2.7431300000000003
744,2,House,2024,400.0,4/290 humffray street north,brown hill,3350.0,3,1,-37.5540266,143.8944692,201011481,Rest of Vic.,3.52365
745,1,House,2024,380.0,605 urquhart street,ballarat central,3350.0,3,1,-37.5670907,143.8442124,201011002,Rest of Vic.,2.14902
746,2,House,2024,470.0,5 rawlings street,lucas,3350.0,4,2,-37.549804,143.7747075,201011001,Rest of Vic.,8.78874
747,2,House,2024,600.0,11 apostle street,kialla,3631.0,4,2,-36.4313431,145.3875638,216031593,Rest of Vic.,5.65556
748,1,House,2024,460.0,22 william street,leopold,3224.0,3,2,-38.1903093,144.4725425,203021044,Rest of Vic.,12.28018
749,2,House,2024,560.0,28 clydesdale loop,yarrawonga,3730.0,4,2,-36.02091679999999,146.016759,216021414,Rest of Vic.,80.98192999999999
750,3,House,2024,780.0,13 jones court,woodend,3442.0,4,2,-37.3432737,144.5364505,202021031,Rest of Vic.,71.8255
751,2,House,2024,425.0,48 teal drive,mildura,3500.0,3,2,-34.1902727,142.1449863,215021469,Rest of Vic.,1.6671099999999999
752,0,House,2024,820.0,88 merrijig drive,torquay,3228.0,4,2,-38.3084394,144.3280455,203031053,Rest of Vic.,19.58896
753,2,House,2024,460.0,8 lumsden way,lucas,3350.0,4,2,-37.5466979,143.7741414,201011001,Rest of Vic.,8.74633
754,2,House,2024,510.0,16 centenary crescent,nagambie,3608.0,3,2,-36.7815501,145.1601306,204011058,Rest of Vic.,52.4395
755,1,Unit,2024,340.0,2/19 candover street,geelong west,3218.0,1,1,-38.141468,144.3518591,203021040,Rest of Vic.,1.77276
756,2,House,2024,500.0,14 landale avenue,mount clear,3350.0,4,2,-37.6072036,143.8655371,201011483,Rest of Vic.,5.980180000000001
757,1,House,2024,395.0,11 montana court,corio,3214.0,3,1,-38.0795336,144.3488485,203021486,Rest of Vic.,9.202219999999999
758,1,Unit,2024,500.0,4/17 buckworth street,kialla,3631.0,2,1,-36.4109027,145.3907101,216031593,Rest of Vic.,3.30398
759,2,House,2024,620.0,9 malkeith court,grovedale,3216.0,4,2,-38.200346,144.349751,203021487,Rest of Vic.,6.94613
760,2,House,2024,850.0,14 lansbury crescent,highton,3216.0,4,2,-38.1646139,144.3121346,203021042,Rest of Vic.,6.3675
761,2,House,2024,470.0,1 spivey street,shepparton,3630.0,3,1,-36.3911892,145.4125903,216031594,Rest of Vic.,2.08677
762,1,Unit,2024,225.0,15/127 vary street,morwell,3840.0,1,1,-38.2219766,146.4276354,205041096,Rest of Vic.,11.89632
763,2,Unit,2024,250.0,4a stone street,california gully,3556.0,1,1,-36.7287025,144.2619308,202011019,Rest of Vic.,4.67261
764,2,Townhouse,2024,560.0,4/69 mt pleasant road,belmont,3216.0,3,2,-38.1707371,144.3390239,203021037,Rest of Vic.,4.02035
765,2,House,2024,650.0,230 dickins rd,mount duneed,3217.0,4,2,-38.2597382,144.3027327,203031053,Rest of Vic.,15.88817
766,1,Unit,2024,420.0,6/1 peter street,grovedale,3216.0,2,1,-38.2069779,144.3394282,203021487,Rest of Vic.,7.57455
767,0,House,2024,400.0,137 lemon avenue,mildura,3500.0,3,1,-34.1908742,142.1614758,215021469,Rest of Vic.,1.6803
768,2,House,2024,450.0,5 pelican drive,winter valley,3358.0,4,2,-37.5729443,143.7838044,201011006,Rest of Vic.,8.93511
769,2,House,2024,480.0,4 leslie st,eaglehawk,3556.0,4,1,-36.7118056,144.2495922,202011019,Rest of Vic.,7.0528
770,1,House,2024,510.0,2 church avenue,hepburn springs,3461.0,2,1,-37.314199,144.1390331,201021011,Rest of Vic.,46.32138
771,2,House,2024,420.0,17 barkly street,ballarat east,3350.0,3,2,-37.5639051,143.8697121,201011481,Rest of Vic.,0.99507
772,2,House,2024,550.0,30 whites road,mount duneed,3217.0,4,2,-38.2333061,144.3324856,203021487,Rest of Vic.,10.72512
773,2,House,2024,550.0,charlemont road,armstrong creek,3217.0,4,2,-38.2486033,144.3699902,203031489,Rest of Vic.,12.810709999999998
774,2,House,2024,480.0,12 pontisford court,kilmore,3764.0,4,2,-37.2914028,144.9398725,204011056,Rest of Vic.,72.15163000000001
775,0,House,2024,480.0,24 pescott street,newtown,3220.0,3,1,-38.1485548,144.3422992,203021046,Rest of Vic.,2.07582
776,2,House,2024,580.0,18 vincent crescent,lake bunga,3909.0,4,2,-37.8652463,148.0314455,205021084,Rest of Vic.,159.07509
777,1,House,2024,500.0,21 orton st,ocean grove,3226.0,3,1,-38.2685305,144.5164357,203031490,Rest of Vic.,24.13652
778,2,House,2024,630.0,6 canary drive,armstrong creek,3217.0,4,3,-38.2296163,144.3664667,203031489,Rest of Vic.,10.13567
779,2,House,2024,380.0,10 leahy street,hamilton,3300.0,3,1,-37.7322767,142.0125829,217011421,Rest of Vic.,101.95577
780,3,House,2024,480.0,16 tarpeena way,clifton springs,3222.0,3,2,-38.1495845,144.5801533,203031048,Rest of Vic.,22.963990000000003
781,2,House,2024,540.0,4 golflinks avenue,wodonga,3690.0,4,2,-36.12587320000001,146.847249,204031073,Rest of Vic.,4.6934700000000005
782,2,House,2024,520.0,11 cleary street,armstrong creek,3217.0,4,2,-38.238646,144.3560307,203031489,Rest of Vic.,12.369729999999999
783,1,House,2024,420.0,367a humffray street north,brown hill,3350.0,3,2,-37.5530014,143.8952447,201011481,Rest of Vic.,3.49533
784,1,House,2024,370.0,58 newman crescent,traralgon,3844.0,3,1,-38.1995996,146.5581652,205041493,Rest of Vic.,2.7788600000000003
785,2,House,2024,510.0,9 mcarthur crescent,armstrong creek,3217.0,4,2,-38.2409423,144.3792811,203031489,Rest of Vic.,12.215879999999999
786,1,Unit,2024,550.0,106/312-320 moorabool street,geelong,3220.0,2,1,-38.1546424,144.3570807,203021039,Rest of Vic.,0.6379
787,1,House,2024,370.0,255 albert street,sebastopol,3356.0,3,1,-37.6037855,143.8410082,201011484,Rest of Vic.,5.88501
788,2,House,2024,520.0,29 linnea drive,yarragon,3823.0,4,2,-38.2094523,146.0631599,205011078,Rest of Vic.,48.68282
789,1,Townhouse,2024,460.0,4/10 murray street,yarrawonga,3730.0,3,2,-36.0232988,146.0089716,216021414,Rest of Vic.,81.14026
790,2,House,2024,440.0,4 dartmoor court,alfredton,3350.0,4,2,-37.5600506,143.8014791,201011001,Rest of Vic.,6.547770000000001
791,1,House,2024,480.0,8 seabeach parade,north shore,3214.0,4,2,-38.0991589,144.3721902,203021488,Rest of Vic.,7.09271
792,1,House,2024,510.0,27 italianate street,charlemont,3217.0,3,2,-38.2215074,144.3680082,203021485,Rest of Vic.,9.233030000000001
793,2,House,2024,560.0,7 backelei crescent,grovedale,3216.0,4,2,-38.2140646,144.3130442,203021487,Rest of Vic.,9.38068
794,1,Unit,2024,330.0,5b/1015 macarthur street,lake wendouree,3350.0,2,1,-37.549999,143.845864,201011002,Rest of Vic.,2.58602
795,0,House,2024,300.0,2/19 kurrajong way,beechworth,3747.0,3,1,-36.3673301,146.696514,204031068,Rest of Vic.,42.16691
796,1,Unit,2024,475.0,3/399 murray street,colac,3250.0,2,2,-38.33649,143.5693647,217031472,Rest of Vic.,76.94373
797,0,House,2024,370.0,2 park street,red cliffs,3496.0,3,1,-34.3019172,142.1902974,215021399,Rest of Vic.,15.14169
798,1,Townhouse,2024,420.0,20/5 peter street,grovedale,3216.0,2,1,-38.206653,144.3382334,203021487,Rest of Vic.,7.66461
799,2,House,2024,480.0,28 avonbury drive,armstrong creek,3217.0,3,2,-38.2445538,144.3808044,203031489,Rest of Vic.,12.14886
800,2,House,2024,320.0,457 eckersleys road,gerrigerrup,3289.0,3,2,-38.0014125,142.1450759,217041478,Rest of Vic.,72.88662
801,1,House,2024,470.0,7 cutler crescent,churchill,3842.0,3,2,-38.31880659999999,146.4167232,205041094,Rest of Vic.,21.95376
802,2,Unit,2024,395.0,27 mackellar cres,mooroopna,3629.0,2,1,-36.3841255,145.3590943,216031415,Rest of Vic.,5.34405
803,2,House,2024,475.0,312 eighth st,mildura,3500.0,3,2,-34.1708834,142.145668,215021469,Rest of Vic.,3.91625
804,1,House,2024,350.0,115 boundary road,orbost,3888.0,3,1,-37.7010797,148.46491,205021085,Rest of Vic.,208.39659
805,2,House,2024,500.0,1 jemacra place,mount clear,3350.0,6,2,-37.6054803,143.8726407,201011483,Rest of Vic.,5.73513
806,2,House,2024,650.0,1a hill st,belmont,3216.0,3,2,-38.1745355,144.3322736,203021037,Rest of Vic.,4.74885
807,2,Unit,2024,440.0,1/42 coolangatta dr,clifton springs,3222.0,3,2,-38.1468422,144.5780233,203031048,Rest of Vic.,22.92307
808,0,House,2024,330.0,37 alamien street,morwell,3840.0,2,1,-38.2329832,146.4204404,205041096,Rest of Vic.,12.363010000000001
809,2,House,2024,420.0,16 o'callaghan parade,lucas,3350.0,3,2,-37.5463336,143.773306,201011001,Rest of Vic.,8.78498
810,1,House,2024,450.0,30 osborne avenue,north geelong,3215.0,3,1,-38.1187036,144.3432724,203021047,Rest of Vic.,5.3594
811,1,House,2024,580.0,51 gladstone street,quarry hill,3550.0,2,1,-36.7679419,144.2816444,202011021,Rest of Vic.,1.37374
812,1,House,2024,450.0,9314 western highway,warrenheip,3352.0,5,2,-37.56126990000001,143.9432963,201011482,Rest of Vic.,7.94718
813,1,Unit,2024,400.0,2/6 rattray avenue,wodonga,3690.0,2,1,-36.1123506,146.8959557,204031492,Rest of Vic.,1.31715
814,1,House,2024,525.0,38 sandringham parade,newtown,3220.0,3,2,-38.1593629,144.3289805,203021046,Rest of Vic.,4.2127
815,2,House,2024,550.0,45 flanagan close,armstrong creek,3217.0,4,2,-38.2384952,144.3594883,203031489,Rest of Vic.,12.55479
816,2,Townhouse,2024,490.0,3/105 forest st,lake wendouree,3350.0,3,2,-37.5411551,143.830392,201011002,Rest of Vic.,4.66492
817,1,Studio,2024,250.0,4/305 ogilvie ave,echuca,3564.0,1,1,-36.1407517,144.7419075,216011406,Rest of Vic.,70.73451
818,1,Unit,2024,450.0,2/47 knight street,shepparton,3630.0,2,1,-36.3733748,145.3986993,216031416,Rest of Vic.,1.2273800000000001
819,2,House,2024,590.0,112 jackson drive,drouin,3818.0,4,2,-38.1245994,145.8589402,205011076,Rest of Vic.,70.07233000000001
820,1,Townhouse,2024,475.0,4/100-108 west fyans street,newtown,3220.0,2,1,-38.1590224,144.3421903,203021046,Rest of Vic.,2.74933
821,2,House,2024,520.0,11 nathan court,mildura,3500.0,4,2,-34.2010743,142.1159879,215021470,Rest of Vic.,4.93479
822,1,House,2024,450.0,1/6a barnett drive,kangaroo flat,3555.0,3,2,-36.8178403,144.2363676,202011022,Rest of Vic.,9.695530000000002
823,2,House,2024,680.0,26 clarkes road,fyansford,3218.0,4,2,-38.1396537,144.2986667,203021040,Rest of Vic.,6.09416
824,1,House,2024,325.0,28 hare street,morwell,3840.0,2,1,-38.2300656,146.4198391,205041096,Rest of Vic.,13.01717
825,2,House,2024,610.0,37 davis street,belmont,3216.0,3,1,-38.1830124,144.3291458,203021037,Rest of Vic.,5.37605
